City_ID,City,Lat,Lng,Max Temp,Humidity,Cloudiness,Wind Speed,Country,Date
0,igarka,67.4667,86.5833,14.9,74,40,3.02,RU,1690228837
1,hsinchu,24.8036,120.9686,30.48,88,98,1.34,TW,1690228738
2,hermanus,-34.4187,19.2345,8.89,68,0,1.88,ZA,1690228838
3,bilibino,68.0546,166.4372,10.75,95,100,0.55,RU,1690228838
4,invercargill,-46.4,168.35,7.35,87,94,4.08,NZ,1690228558
5,buka,40.8108,69.1986,26.94,22,0,2.16,UZ,1690228839
6,port-aux-francais,-49.35,70.2167,3.62,76,100,11.09,TF,1690228839
7,labrador city,52.9463,-66.9114,25.95,34,40,4.12,CA,1690228840
8,enewetak,11.3474,162.3373,28.53,77,41,7.18,MH,1690228840
9,sezanne,48.7205,3.7234,18.88,91,59,2.88,FR,1690228841
10,sinabang,2.4803,96.3801,25.85,82,15,0.27,ID,1690228841
11,kansanshi,-12.0951,26.4273,15.34,49,0,1.62,ZM,1690228603
12,bredasdorp,-34.5322,20.0403,7.58,74,0,2.17,ZA,1690228842
13,thaton,16.9206,97.3714,24.74,92,64,1.72,MM,1690228842
14,anadyr,64.75,177.4833,11.28,87,75,6.0,RU,1690228843
15,adamstown,-25.066,-130.1015,19.81,68,35,3.15,PN,1690228843
16,waitangi,-43.9535,-176.5597,12.12,98,100,2.68,NZ,1690228844
17,ushuaia,-54.8,-68.3,0.81,64,0,1.54,AR,1690228844
18,college,64.8569,-147.8028,28.04,60,40,0.0,US,1690228695
19,grytviken,-54.2811,-36.5092,-6.71,87,92,6.08,GS,1690228845
20,hasaki,35.7333,140.8333,24.06,92,84,3.07,JP,1690228845
21,olyokminsk,60.3736,120.4264,18.97,77,6,0.42,RU,1690228846
22,bethel,41.3712,-73.414,30.01,56,92,2.68,US,1690228846
23,afaahiti,-17.75,-149.2833,26.93,83,6,9.16,PF,1690228588
24,charters towers,-20.1,146.2667,9.33,93,50,3.81,AU,1690228846
25,pyrgos,37.6751,21.441,30.0,59,0,1.76,GR,1690228847
26,aykhal,66.0,111.5,13.17,92,99,2.61,RU,1690228847
27,pacific grove,36.6177,-121.9166,26.88,83,20,5.36,US,1690228806
28,nova sintra,14.8667,-24.7167,22.82,79,100,6.84,CV,1690228597
29,tazovsky,67.4667,78.7,12.92,96,86,3.25,RU,1690228848
30,petropavlovsk-kamchatsky,53.0452,158.6483,14.33,82,20,3.0,RU,1690228849
31,puerto natales,-51.7236,-72.4875,-3.14,82,100,0.25,CL,1690228849
32,ust-nera,64.5667,143.2,16.2,67,95,3.7,RU,1690228849
33,rio grande,-32.035,-52.0986,14.06,94,100,7.95,BR,1690228676
34,mahibadhoo,3.7833,72.9667,28.43,77,100,4.38,MV,1690228850
35,maua,-23.6678,-46.4614,25.89,56,6,2.3,BR,1690228605
36,alice springs,-23.7,133.8833,4.75,81,0,0.0,AU,1690228850
37,longyearbyen,78.2186,15.6401,10.91,71,75,7.72,SJ,1690228851
38,kapuskasing,49.4169,-82.4331,22.05,56,75,2.06,CA,1690228568
39,rongelap,11.1635,166.8941,28.5,74,94,8.97,MH,1690228571
40,chinsali,-10.5414,32.0816,16.59,50,0,2.93,ZM,1690228852
41,siwa oasis,29.2041,25.5195,35.4,22,0,8.85,EG,1690228852
42,papatowai,-46.5619,169.4708,5.99,92,80,1.89,NZ,1690228852
43,yellowknife,62.456,-114.3525,24.29,43,100,2.57,CA,1690228853
44,blackmans bay,-43.0167,147.3167,9.07,83,100,1.84,AU,1690228853
45,tura,25.5198,90.2201,23.99,90,100,2.7,IN,1690228853
46,paracuru,-3.41,-39.0306,27.28,75,6,6.41,BR,1690228854
47,ancud,-41.8697,-73.8203,8.32,93,100,9.42,CL,1690228729
48,saudarkrokur,65.7461,-19.6394,10.24,90,100,1.25,IS,1690228627
49,fort bragg,35.139,-79.006,32.47,63,0,2.06,US,1690228586
50,smara,26.7384,-11.6719,24.64,50,10,8.33,EH,1690228855
51,kargasok,59.0556,80.8572,15.0,91,36,2.26,RU,1690228855
52,tolanaro,-25.0319,46.9987,18.49,93,99,1.51,MG,1690228856
53,xifeng,42.7372,124.7222,19.17,96,40,1.89,CN,1690228856
54,coquimbo,-29.9533,-71.3436,16.85,72,0,6.69,CL,1690228585
55,guozhen,34.3659,107.359,24.62,60,0,0.64,CN,1690228857
56,gadzhiyevo,69.2551,33.3362,9.43,93,100,6.79,RU,1690228857
57,mugia,43.1041,-9.2179,18.84,71,56,5.24,ES,1690228857
58,constantia,44.1833,28.65,23.38,70,0,6.95,RO,1690228805
59,ostersund,63.1792,14.6357,16.25,33,100,2.57,SE,1690228845
60,val-d'or,48.1002,-77.7828,17.05,94,100,3.6,CA,1690228858
61,vila franca do campo,37.7167,-25.4333,23.23,77,39,2.04,PT,1690228859
62,xining,36.6167,101.7667,15.4,60,100,2.52,CN,1690228859
63,christchurch,-43.5333,172.6333,5.51,94,100,1.54,NZ,1690228514
64,jamestown,42.097,-79.2353,27.51,65,100,4.63,US,1690228859
65,la rinconada,37.4873,-5.9826,30.63,46,0,7.2,ES,1690228860
66,vernon,50.2581,-119.2691,29.96,23,100,1.54,CA,1690228679
67,kailua-kona,19.6406,-155.9956,29.6,81,68,0.89,US,1690228860
68,edinburgh of the seven seas,-37.0676,-12.3116,15.0,77,70,16.4,SH,1690228580
69,thompson,55.7435,-97.8558,25.09,36,20,4.12,CA,1690228861
70,tadine,-21.55,167.8833,19.73,68,100,5.75,NC,1690228862
71,deltebre,40.7499,0.7868,28.52,71,0,3.82,ES,1690228862
72,smithers,54.7804,-127.1743,14.18,77,75,1.03,CA,1690228863
73,zaozersk,69.4005,32.4476,9.03,97,100,5.6,RU,1690228863
74,queenstown,-31.8976,26.8753,5.07,50,0,0.94,ZA,1690228596
75,al mindak,20.1588,41.2834,28.78,25,93,0.8,SA,1690228864
76,carutapera,-1.195,-46.02,25.93,89,5,3.25,BR,1690228865
77,virginia beach,36.8529,-75.978,28.9,75,0,5.66,US,1690228866
78,raton,36.9034,-104.4391,35.19,12,44,3.48,US,1690228867
79,ulsteinvik,62.3432,5.8487,15.5,88,100,4.47,NO,1690228585
80,harstad,68.799,16.5293,15.66,100,94,1.79,NO,1690228867
81,dryden,49.7833,-92.7503,25.16,41,40,3.09,CA,1690228868
82,dudinka,69.4058,86.1778,13.68,73,40,3.62,RU,1690228620
83,qom,34.6401,50.8764,34.56,11,85,9.64,IR,1690228869
84,jayapura,-2.5333,140.7,24.66,94,80,1.44,ID,1690228819
85,bubaque,11.2833,-15.8333,27.65,77,100,5.11,GW,1690228870
86,baruun-urt,46.6806,113.2792,14.73,77,54,0.65,MN,1690228870
87,toliara,-23.35,43.6667,18.92,78,3,1.81,MG,1690228870
88,houlton,46.1262,-67.8403,29.78,37,0,4.63,US,1690228605
89,tupiza,-21.45,-65.7167,22.12,4,0,3.45,BO,1690228871
90,takoradi,4.8845,-1.7554,24.63,89,100,2.71,GH,1690228764
91,rio preto da eva,-2.6994,-59.6997,35.88,29,18,1.3,BR,1690228872
92,novodvinsk,64.4165,40.8122,11.29,97,60,2.08,RU,1690228872
93,fale old settlement,-9.3852,-171.2468,28.87,71,9,7.81,TK,1690228873
94,wailua homesteads,22.0669,-159.378,27.44,73,100,7.2,US,1690228670
95,port alfred,-33.5906,26.891,12.34,68,0,4.45,ZA,1690228589
96,shache,38.4167,77.2406,28.73,44,64,4.42,CN,1690228874
97,vilyuchinsk,52.9306,158.4028,15.15,84,22,4.62,RU,1690228875
98,rosetta,31.4044,30.4164,27.65,80,0,7.2,EG,1690228875
99,olonkinbyen,70.9221,-8.7187,4.98,92,100,5.92,SJ,1690228876
100,el hamma,33.8915,9.7963,37.62,19,0,5.92,TN,1690228876
101,xinyuan,37.3,99.0,4.93,91,22,1.85,CN,1690228644
102,avarua,-21.2078,-159.775,23.03,88,75,2.06,CK,1690228877
103,ilulissat,69.2167,-51.1,9.01,81,75,2.06,GL,1690228878
104,mil'kovo,55.6078,37.7956,15.23,95,100,1.34,RU,1690228878
105,port blair,11.6667,92.75,25.02,94,100,0.0,IN,1690228685
106,puerto ayora,-0.7393,-90.3518,28.98,96,78,4.02,EC,1690228879
107,fort st. john,56.2499,-120.8529,16.94,67,100,2.06,CA,1690228810
108,taoudenni,22.6783,-3.9836,43.21,11,72,2.75,ML,1690228879
109,lorengau,-2.0226,147.2712,25.0,90,100,2.51,PG,1690228880
110,encinitas,33.037,-117.292,37.92,73,93,1.79,US,1690228811
111,capao bonito,-24.0058,-48.3494,21.9,51,26,1.76,BR,1690228644
112,albany,42.6001,-73.9662,24.29,84,60,3.79,US,1690228567
113,port lincoln,-34.7333,135.8667,13.19,70,92,4.61,AU,1690228881
114,santa ana,33.7456,-117.8678,40.23,57,20,4.12,US,1690228639
115,mount pearl,47.5166,-52.7813,25.25,80,75,7.72,CA,1690228882
116,bikenibeu village,1.3673,173.1241,24.98,100,20,0.0,KI,1690228882
117,ciudad melchor muzquiz,27.8833,-101.5167,36.38,29,5,5.77,MX,1690228883
118,achit,56.7985,57.8994,13.02,95,79,2.35,RU,1690228883
119,iqaluit,63.7506,-68.5145,7.85,75,75,3.6,CA,1690228884
120,ribeira grande,38.5167,-28.7,23.76,83,75,5.36,PT,1690228884
121,amungan,15.3652,119.9582,27.17,88,100,2.62,PH,1690228884
122,kendari,-3.945,122.4989,21.81,94,61,1.66,ID,1690228885
123,georgetown,5.4112,100.3354,27.96,84,20,1.03,MY,1690228854
124,vernal,40.4555,-109.5287,34.25,20,87,0.89,US,1690228885
125,kruisfontein,-34.0033,24.7314,6.6,77,0,2.97,ZA,1690228886
126,port elizabeth,-33.918,25.5701,9.16,81,0,4.12,ZA,1690228821
127,nabire,-3.3667,135.4833,24.29,90,98,2.46,ID,1690228887
128,east ballina,-28.8667,153.5833,9.33,68,17,1.89,AU,1690228847
129,sho'rchi,38.0141,67.7899,31.12,18,31,1.44,UZ,1690228888
130,kill devil hills,36.0307,-75.676,28.0,75,75,3.6,US,1690228810
131,greymouth,-42.4667,171.2,6.91,87,83,0.69,NZ,1690228888
132,caleta de carquin,-11.0925,-77.6267,21.67,72,9,5.53,PE,1690228889
133,la passe,45.5549,-0.8967,20.13,78,56,7.16,FR,1690228889
134,hawaiian paradise park,19.5933,-154.9731,27.63,84,93,0.45,US,1690228890
135,ust'-ilimsk,58.0006,102.6619,16.9,95,100,1.68,RU,1690228605
136,kalyazin,57.2403,37.8433,12.23,99,99,2.57,RU,1690228891
137,hithadhoo,-0.6,73.0833,28.27,78,100,6.83,MV,1690228891
138,nar'yan-mar,67.6713,53.087,16.21,74,100,2.19,RU,1690228892
139,castro,-24.7911,-50.0119,19.27,63,65,0.46,BR,1690228892
140,pyt-yakh,60.7499,72.8582,15.6,92,98,1.37,RU,1690228892
141,porto torres,40.835,8.3972,30.1,66,91,2.27,IT,1690228893
142,nemuro,43.3236,145.575,16.61,94,100,6.24,JP,1690228697
143,susuman,62.7833,148.1667,13.69,61,25,1.29,RU,1690228618
144,lihue,21.9789,-159.3672,27.98,71,62,5.37,US,1690228894
145,st. john's,47.5649,-52.7093,25.71,86,75,7.72,CA,1690228625
146,ujae,8.9322,165.7642,28.62,78,100,7.89,MH,1690228894
147,tiksi,71.6872,128.8694,3.69,82,22,2.2,RU,1690228895
148,tuscaloosa,33.2098,-87.5692,33.38,46,0,2.57,US,1690228697
149,jumla,29.2747,82.1838,17.29,97,99,0.63,NP,1690228895
150,vorgashor,67.5833,63.95,16.07,73,100,1.5,RU,1690228895
151,lewiston orchards,46.3804,-116.9754,33.61,23,0,4.12,US,1690228896
152,alofi,-19.0595,-169.9187,21.94,73,40,2.57,NU,1690228896
153,stanley,54.868,-1.6985,12.93,80,75,1.03,GB,1690228896
154,bardai,11.65,7.2333,24.88,70,28,3.08,NG,1690228897
155,khandyga,62.6667,135.6,17.12,84,50,1.86,RU,1690228599
156,channagiri,14.0333,75.9333,20.86,90,100,7.2,IN,1690228898
157,lompoc,34.6391,-120.4579,35.43,69,40,3.6,US,1690228898
158,xiva,41.3783,60.3639,27.99,17,4,4.17,UZ,1690228898
159,crane,31.3974,-102.3501,38.2,16,0,6.03,US,1690228899
160,olmos,-5.9847,-79.7453,31.44,40,14,4.82,PE,1690228899
161,minas de marcona,-15.2119,-75.1103,17.85,57,0,6.27,PE,1690228899
162,massaguet,12.4755,15.4365,29.67,55,45,3.77,TD,1690228900
163,tarauaca,-8.1614,-70.7656,34.85,31,34,0.5,BR,1690228900
164,kirensk,57.7853,108.1119,16.62,79,47,0.84,RU,1690228900
165,korla,41.7597,86.1469,28.06,33,100,5.91,CN,1690228901
166,sola,-13.8833,167.55,25.78,86,94,6.29,VU,1690228901
167,mount gambier,-37.8333,140.7667,9.08,80,85,0.74,AU,1690228901
168,aden,12.7794,45.0367,30.83,71,100,5.3,YE,1690228902
169,selfoss,63.9331,-20.9971,15.02,84,56,3.92,IS,1690228624
170,tsiombe,-25.3,45.4833,16.55,90,58,1.69,MG,1690228902
171,santa cruz,-17.8,-63.1667,28.7,51,75,6.17,BO,1690228902
172,plettenberg bay,-34.0527,23.3716,9.87,72,0,2.47,ZA,1690228903
173,kodiak,57.79,-152.4072,12.66,85,100,4.61,US,1690228903
174,alton north (historical),26.2953,-98.3045,38.26,55,0,2.57,US,1690228903
175,qamdo,31.1667,97.2333,5.75,92,100,2.05,CN,1690228904
176,magadan,59.5667,150.8,14.54,63,13,1.96,RU,1690228904
177,talnakh,69.4865,88.3972,13.45,72,85,0.84,RU,1690228904
178,howard springs,-12.497,131.047,15.95,50,10,3.63,AU,1690228905
179,lobva,59.1854,60.5185,13.84,74,39,0.87,RU,1690228905
180,banda aceh,5.5577,95.3222,26.85,71,77,5.87,ID,1690228636
181,mahanoro,-19.9,48.8,19.35,92,15,2.18,MG,1690228906
182,ketchikan,55.3422,-131.6461,15.99,62,97,2.08,US,1690228906
183,diamantino,-14.4086,-56.4461,34.46,19,0,1.02,BR,1690228906
184,linhares,-19.3911,-40.0722,22.36,75,0,3.01,BR,1690228907
185,rundu,-17.9333,19.7667,16.76,22,99,2.66,NA,1690228907
186,san patricio,28.017,-97.5169,36.21,37,9,7.42,US,1690228907
187,chabahar,25.2919,60.643,29.88,75,100,1.18,IR,1690228908
188,wanning,18.8003,110.3967,26.75,83,99,0.83,CN,1690228908
189,prince george,53.9166,-122.753,17.69,77,75,1.54,CA,1690228900
190,sint michiel liber,12.15,-68.9833,31.9,66,20,7.2,CW,1690228909
191,carnarvon,-24.8667,113.6333,15.47,81,5,5.58,AU,1690228909
192,dongsheng,39.8161,109.9776,22.27,44,5,4.92,CN,1690228910
193,qaqortoq,60.7167,-46.0333,6.96,87,80,3.58,GL,1690228910
194,ta`u,-14.2336,-169.5144,25.87,73,93,5.71,AS,1690228911
195,quellon,-43.1167,-73.6167,9.14,87,100,11.32,CL,1690228911
196,nuku'alofa,-21.1333,-175.2,16.19,94,20,1.03,TO,1690228911
197,rabaul,-4.1967,152.1721,25.99,81,97,7.76,PG,1690228912
198,weno,7.4515,151.8468,28.24,77,100,7.85,FM,1690228912
199,katsuura,35.1333,140.3,24.62,91,22,3.31,JP,1690228912
200,gizo,-8.103,156.8419,26.3,84,100,7.43,SB,1690228913
201,nantucket,41.2835,-70.0995,26.72,83,0,4.63,US,1690228831
202,jarabulus,36.8175,38.0111,32.19,28,0,12.4,SY,1690228913
203,zdvinsk,54.7021,78.661,15.53,84,0,0.38,RU,1690228914
204,salym,60.0625,71.4789,14.81,98,100,1.72,RU,1690228914
205,lebu,-37.6167,-73.65,10.71,88,100,8.6,CL,1690228914
206,shingu,33.7333,135.9833,22.96,89,0,1.69,JP,1690228915
207,iskateley,67.6803,53.1512,16.17,74,100,2.26,RU,1690228915
208,sao jose da coroa grande,-8.8978,-35.1478,24.08,81,10,4.25,BR,1690228915
209,itaituba,-4.2761,-55.9836,36.09,32,20,2.57,BR,1690228916
210,thunder bay,48.4001,-89.3168,24.95,38,75,3.09,CA,1690228809
211,yanam,16.7333,82.2167,25.27,94,100,3.74,IN,1690228916
212,opuwo,-18.0607,13.84,19.81,28,4,1.41,NA,1690228916
213,arraial do cabo,-22.9661,-42.0278,23.98,73,0,9.26,BR,1690228917
214,whakatane,-37.9585,176.9854,7.65,99,19,2.38,NZ,1690228917
215,dalmatovo,56.26,62.9362,15.35,78,12,2.55,RU,1690228918
216,porto novo,6.4965,2.6036,24.9,91,100,2.32,BJ,1690228918
217,ondjiva,-17.0667,15.7333,18.14,24,9,1.9,AO,1690228918
218,kirakira,-10.4544,161.9205,25.45,87,11,1.51,SB,1690228919
219,kattivakkam,13.2167,80.3167,26.05,94,100,7.76,IN,1690228919
220,namibe,-15.1961,12.1522,18.42,81,100,3.1,AO,1690228919
221,new norfolk,-42.7826,147.0587,9.72,85,98,1.63,AU,1690228920
222,dunedin,-45.8742,170.5036,6.56,97,28,1.34,NZ,1690228920
223,hericourt,47.5731,6.7614,19.59,93,94,1.83,FR,1690228920
224,savanna-la-mar,18.219,-78.1332,31.97,64,57,1.98,JM,1690228921
225,pandan,14.0453,124.1694,26.83,89,100,8.93,PH,1690228924
226,ulanhot,46.0833,122.0833,18.99,87,100,0.95,CN,1690228925
227,port mathurin,-19.6833,63.4167,23.15,77,45,8.0,MU,1690228927
228,klyuchi,52.2667,79.1667,19.5,59,16,3.76,RU,1690228928
229,moldava nad bodvou,48.6143,20.9996,26.08,61,0,4.12,SK,1690228928
230,sitka,57.0531,-135.33,18.99,62,76,2.69,US,1690228935
231,watsa,3.0372,29.5355,18.65,93,75,0.74,CD,1690228939
232,tougue,11.4667,-11.6,21.09,94,99,1.02,GN,1690228940
233,mogocha,53.7333,119.7667,14.64,95,96,0.94,RU,1690228941
234,tamuin,21.9833,-98.75,23.64,97,100,2.83,MX,1690228941
235,geraldton,-28.7667,114.6,10.23,66,3,5.14,AU,1690228681
236,uturoa,-16.7333,-151.4333,26.68,82,18,6.4,PF,1690228942
237,cockburn town,21.4612,-71.1419,30.98,58,40,5.14,TC,1690228942
238,puerto baquerizo moreno,-0.9,-89.6,27.55,74,75,5.91,EC,1690228943
239,lupane,-18.9315,27.807,14.99,27,0,2.39,ZW,1690228943
240,margaret river,-33.95,115.0667,16.58,80,11,8.96,AU,1690228944
241,al jawf,29.5,38.75,31.84,13,0,4.76,SA,1690228944
242,saint-philippe,-21.3585,55.7679,19.77,84,38,3.63,RE,1690228944
243,portrush,55.1959,-6.6493,13.93,77,94,3.13,GB,1690228945
244,tsiroanomandidy,-18.7667,46.0333,19.27,54,67,0.36,MG,1690228945
245,dhidhdhoo,6.8833,73.1,27.87,81,82,5.69,MV,1690228946
246,cabo san lucas,22.8909,-109.9124,35.34,70,13,1.79,MX,1690228816
247,basse-terre,16.1667,-61.6667,30.58,62,75,9.26,GP,1690228809
248,tazacorte,28.629,-17.9293,23.54,84,20,6.69,ES,1690228947
249,woolgoolga,-30.1106,153.2007,12.93,86,46,5.7,AU,1690228947
250,kaliua,-5.0606,31.7936,21.81,38,0,1.99,TZ,1690228947
251,preobrazheniye,42.9019,133.9064,19.37,99,97,2.74,RU,1690228948
252,bom jesus,-9.0744,-44.3586,32.93,20,16,4.28,BR,1690228859
253,creel,27.75,-107.6333,27.85,22,9,7.42,MX,1690228948
254,west island,-12.1568,96.8225,24.99,78,40,9.26,CC,1690228949
255,kulachi,31.9286,70.4592,33.69,55,90,3.9,PK,1690228949
256,talara,-4.5772,-81.2719,28.42,54,0,9.26,PE,1690228949
257,colonia,50.9333,6.95,17.7,85,20,2.57,DE,1690228933
258,penhalonga,-18.8911,32.6978,12.19,60,0,1.37,ZW,1690228950
259,hammerfest,70.6634,23.6821,11.25,87,75,3.09,NO,1690228791
260,tetouan,35.5711,-5.3724,27.43,54,0,8.75,MA,1690228951
261,sinop,41.7711,34.8709,15.49,90,0,1.47,TR,1690228951
262,laholm,56.5121,13.0437,18.03,96,58,1.76,SE,1690228952
263,cayeli,41.0923,40.7292,22.45,83,9,2.53,TR,1690228952
264,sisimiut,66.9395,-53.6735,9.0,75,55,6.81,GL,1690228952
265,amuntai,-2.4177,115.2494,22.27,96,69,0.41,ID,1690228953
266,huaidian,33.4333,115.0333,27.55,78,97,1.59,CN,1690228953
267,palasa,18.7667,84.4167,26.43,89,78,3.49,IN,1690228954
268,port augusta,-32.5,137.7667,7.56,87,0,2.5,AU,1690228954
269,holualoa,19.6228,-155.9522,27.53,81,42,0.89,US,1690228954
270,la punta,-33.1837,-66.3127,15.19,28,0,1.44,AR,1690228955
271,reggane,26.7158,0.1714,41.7,8,71,4.82,DZ,1690228955
272,hadibu,12.65,54.0333,25.09,79,56,8.24,YE,1690228955
273,kavieng,-2.5744,150.7967,27.06,80,100,4.88,PG,1690228956
274,axim,4.8699,-2.2405,24.68,89,100,2.25,GH,1690228956
275,utrik,11.2278,169.8474,28.33,77,87,7.47,MH,1690228957
276,bodo,67.28,14.405,15.43,88,75,2.57,NO,1690228957
277,sandusky,41.3501,-83.1332,29.99,48,4,2.06,US,1690228671
278,bremen,53.0752,8.8078,15.89,90,75,8.23,DE,1690228837
279,flying fish cove,-10.4217,105.6791,23.82,94,100,3.6,CX,1690228958
280,usinsk,65.9939,57.5281,14.23,81,8,3.36,RU,1690228958
281,callao,-12.0667,-77.15,24.16,53,20,5.66,PE,1690228941
282,brookhaven,31.5791,-90.4407,33.17,31,0,1.3,US,1690228959
283,revda,56.801,59.9303,12.47,94,33,1.63,RU,1690228959
284,keflavik,64.0049,-22.5624,12.24,76,100,4.12,IS,1690228960
285,lautoka,-17.6167,177.4667,22.92,83,100,1.54,FJ,1690228960
286,galle,6.0367,80.217,25.8,88,99,3.59,LK,1690228960
287,bandarbeyla,9.4942,50.8122,24.88,73,65,15.1,SO,1690228961
288,kolondieba,11.0882,-6.8926,23.28,92,99,1.29,ML,1690228961
289,ceeldheer,3.8488,47.1806,24.84,80,32,9.08,SO,1690228961
290,yuzhno-kurilsk,44.0306,145.8556,17.37,100,100,2.62,RU,1690228962
291,ryotsu-minato,38.0833,138.4333,25.26,79,1,1.76,JP,1690228962
292,kiunga,-6.1219,141.2906,20.99,98,100,0.86,PG,1690228962
293,at taj,24.2049,23.2857,32.23,15,3,3.64,LY,1690228963
294,novyy urgal,51.0736,132.5642,17.87,99,100,0.66,RU,1690228963
295,verkhniy baskunchak,48.2256,46.7217,25.4,48,100,3.5,RU,1690228963
296,whitehorse,60.7161,-135.0538,16.12,82,75,2.57,CA,1690228964
297,sheridan,44.8333,-106.9173,36.68,27,0,0.89,US,1690228964
298,naze,28.3667,129.4833,27.51,83,100,5.18,JP,1690228964
299,saipan,15.1355,145.701,27.58,100,100,5.31,MP,1690228965
300,yung shue wan,22.2333,114.1167,29.76,82,73,2.77,HK,1690228965
301,ladario,-19.0047,-57.6017,32.16,35,20,3.6,BR,1690228965
302,horovice,49.836,13.9027,21.61,72,100,6.07,CZ,1690228965
303,bridgewater,44.3835,-64.5155,30.06,58,85,9.26,CA,1690228966
304,brookings,44.3114,-96.7984,31.77,42,0,6.17,US,1690228842
305,salalah,17.0151,54.0924,25.48,93,100,2.0,OM,1690228966
306,aasiaat,68.7098,-52.8699,3.68,95,98,2.8,GL,1690228967
307,port saint john's,-31.6229,29.5448,14.57,64,25,2.83,ZA,1690228967
308,hengchun,22.0042,120.7439,28.44,77,79,7.12,TW,1690228967
309,colac,-38.3333,143.5833,9.54,87,95,0.87,AU,1690228968
310,kapa'a,22.0752,-159.319,28.39,70,82,1.79,US,1690228968
311,campeche,19.0,-90.5,39.02,24,7,3.36,MX,1690228968
312,chemolgan,43.1897,76.5292,21.81,33,48,3.16,KZ,1690228968
313,gebeit,21.0667,36.3167,33.3,12,48,1.58,SD,1690228969
314,saint-joseph,-21.3667,55.6167,19.21,83,34,3.42,RE,1690228969
315,punta cardon,11.6581,-70.215,29.14,64,79,15.17,VE,1690228540
316,tobol'sk,58.2,68.2667,13.34,97,74,2.71,RU,1690228970
317,urengoy,65.9667,78.3667,18.65,61,6,0.4,RU,1690228970
318,mormugao,15.4,73.8,26.59,89,100,4.12,IN,1690228970
319,westport,41.1415,-73.3579,30.99,56,0,4.63,US,1690228971
320,midvagur,62.0511,-7.1939,8.46,87,100,4.63,FO,1690228971
321,presidente medici,-11.1753,-61.9014,35.48,20,0,0.37,BR,1690228971
322,atafu village,-8.5421,-172.5159,28.93,70,13,7.87,TK,1690228972
323,vila do maio,15.1333,-23.2167,27.44,78,96,5.26,CV,1690228972
324,vorkuta,67.5,64.0,16.01,74,100,1.0,RU,1690228972
325,sao joao da barra,-21.6403,-41.0511,26.05,79,0,5.41,BR,1690228973
326,kibre mengist,5.8833,38.9833,15.17,96,99,1.02,ET,1690228973
327,kusong,39.9811,125.2447,21.01,96,4,0.94,KP,1690228973
328,uusikaupunki,60.8004,21.4084,14.79,77,23,2.36,FI,1690228973
329,potosi,-19.5836,-65.7531,15.48,23,0,5.14,BO,1690228974
330,chui,-33.6971,-53.4616,9.12,93,100,5.42,UY,1690228974
331,isafjordur,66.0755,-23.124,10.26,93,100,2.46,IS,1690228974
332,chadron,42.8294,-102.9999,32.86,40,0,2.06,US,1690228975
333,kenora,49.8167,-94.4337,25.54,36,20,4.63,CA,1690228697
334,bozkurt,41.9577,34.0109,20.17,80,2,2.38,TR,1690228975
335,pathein,16.7833,94.7333,25.72,90,93,3.1,MM,1690228976
336,badger,64.8,-147.5333,28.62,56,40,1.54,US,1690228976
337,mejit,10.2753,170.8646,28.3,77,96,8.01,MH,1690228976
338,northam,51.0333,-4.2167,16.45,76,14,5.08,GB,1690228977
339,ormara,25.2088,64.6357,28.3,91,95,7.02,PK,1690228977
340,north platte,41.1239,-100.7654,35.6,41,59,1.34,US,1690228807
341,batie,9.8833,-2.9167,23.14,95,100,1.82,BF,1690228978
342,banamba,13.55,-7.45,30.76,48,100,1.37,ML,1690228978
343,qujing,25.4833,103.7833,16.14,94,70,1.7,CN,1690228832
344,ain sefra,32.75,-0.5833,33.46,14,61,2.76,DZ,1690228978
345,tondano,1.3038,124.9112,24.05,91,85,2.49,ID,1690228979
346,mao,39.8885,4.2658,27.31,94,75,4.12,ES,1690228979
347,korsakov,46.6328,142.7813,19.91,100,100,1.27,RU,1690228980
348,kerikeri,-35.2268,173.9474,8.28,94,17,2.3,NZ,1690228980
349,loukhi,66.0764,33.0381,10.53,98,100,1.85,RU,1690228980
350,port douglas,-16.4833,145.4667,15.73,53,0,3.46,AU,1690228981
351,san jose del cabo,23.0589,-109.6977,35.33,67,19,4.02,MX,1690228813
352,zhangatas,43.5667,69.75,26.61,17,0,1.69,KZ,1690228981
353,marsa alam,25.0757,34.8918,32.74,44,0,2.44,EG,1690228982
354,moquegua,-17.1956,-70.9353,23.41,27,0,3.3,PE,1690228982
355,saint croix,17.7397,-64.7388,29.27,66,91,7.17,VI,1690228983
356,livani,56.3543,26.1758,13.79,96,27,1.93,LV,1690228983
357,portland,45.5234,-122.6762,21.95,67,100,1.79,US,1690228843
358,uberaba,-19.7483,-47.9319,27.32,36,40,4.12,BR,1690228984
359,lipova,46.0833,21.7,25.68,61,44,3.23,RO,1690228984
360,korem,12.5058,39.5228,17.07,71,100,1.48,ET,1690228843
361,nakhon thai,17.1006,100.8374,23.83,95,100,0.2,TH,1690228985
362,puerto deseado,-47.7503,-65.8938,4.64,73,99,9.66,AR,1690228985
363,san juan,-31.5375,-68.5364,14.99,32,0,3.17,AR,1690228317
364,lianzhou,24.7811,112.3825,25.04,95,100,0.91,CN,1690228986
365,bria,6.5423,21.9863,21.27,94,46,1.16,CF,1690228986
366,punta arenas,-53.15,-70.9167,-0.97,77,100,2.38,CL,1690228404
367,usogorsk,63.4106,48.6872,13.87,96,100,1.29,RU,1690228987
368,kavaratti,10.5669,72.642,28.1,80,100,8.12,IN,1690228987
369,codrington,-38.2667,141.9667,11.5,67,98,1.58,AU,1690228988
370,roma,43.2128,-75.4557,26.09,65,56,4.11,US,1690228759
371,turkmenbasy,40.0222,52.9552,33.43,16,0,4.12,TM,1690228988
372,currais novos,-6.2608,-36.5178,26.72,53,65,8.89,BR,1690228989
373,le puy-en-velay,45.0437,3.8852,16.71,83,100,2.42,FR,1690228989
374,lanivtsi,49.8633,26.0908,20.02,77,100,3.14,UA,1690228990
375,wellington,-41.2866,174.7756,9.37,95,75,4.12,NZ,1690228673
376,thief river falls,48.1191,-96.1812,29.53,51,0,2.57,US,1690228991
377,kriva palanka,42.2019,22.3319,23.98,43,0,1.29,MK,1690228992
378,horta,38.5333,-28.6333,23.34,82,75,5.36,PT,1690228992
379,kangding,30.0513,101.9603,16.32,99,100,0.84,CN,1690228993
380,nefta,33.8731,7.8777,41.14,9,0,3.02,TN,1690228993
381,hamilton,39.1834,-84.5333,32.17,61,100,7.2,US,1690228397
382,pisco,-13.7,-76.2167,23.03,60,0,7.2,PE,1690228994
383,san luis de la loma,17.2706,-100.8939,31.34,60,99,3.29,MX,1690228994
384,udachny,66.4167,112.4,13.03,93,25,2.49,RU,1690228943
385,ardestan,33.3761,52.3694,31.23,13,54,3.43,IR,1690228995
386,xilin hot,43.9667,116.0333,16.92,58,2,1.58,CN,1690228995
387,noosa heads,-26.3833,153.15,15.19,68,95,9.43,AU,1690228996
388,mirnyy,62.5353,113.9611,20.13,59,15,3.13,RU,1690228996
389,svetlogorsk,52.6333,29.7333,15.37,95,61,3.08,BY,1690228996
390,gamba,-2.65,10.0,21.89,91,98,1.51,GA,1690228997
391,fallon,39.4735,-118.7774,35.25,19,75,5.14,US,1690228997
392,pionerskiy,54.9508,20.2275,19.91,80,100,3.33,RU,1690228997
393,saldanha,-33.0117,17.9442,6.03,72,0,4.06,ZA,1690228998
394,alamogordo,32.8995,-105.9603,37.0,18,0,4.63,US,1690228850
395,qurayyat,31.3318,37.3428,32.1,20,0,4.12,SA,1690228998
396,skovorodino,53.9833,123.9167,15.8,95,76,0.77,RU,1690228999
397,san antonio de pale,-1.4014,5.6325,22.75,84,100,4.55,GQ,1690228875
398,ugoofaaru,5.6667,73.0,27.99,81,100,4.92,MV,1690229000
399,huarmey,-10.0681,-78.1522,23.49,68,0,5.56,PE,1690229000
400,taos,36.4072,-105.5731,35.86,18,0,0.89,US,1690228882
401,tarija,-21.5355,-64.7296,18.95,52,0,6.17,BO,1690229000
402,port-vila,-17.7338,168.3219,21.78,94,100,3.6,VU,1690228881
403,boden,65.8252,21.6886,13.0,77,100,1.62,SE,1690229001
404,troitskiy,57.0603,63.7481,14.61,80,39,2.05,RU,1690229002
405,ganjam,19.3833,85.0667,27.86,85,27,5.42,IN,1690229002
406,luanco,43.6152,-5.7934,19.71,71,46,5.84,ES,1690229002
407,kauniainen,60.2121,24.7276,17.32,75,0,4.02,FI,1690229003
408,chom bueng,13.62,99.5917,24.57,83,99,1.78,TH,1690229003
409,daru,-9.0763,143.2092,24.01,73,100,2.5,PG,1690229004
410,puerto penasco,31.3167,-113.5333,33.84,58,55,4.02,MX,1690228975
411,abepura,-2.6333,140.5833,24.45,83,40,0.0,ID,1690229005
412,corner brook,48.9667,-57.9484,26.09,66,1,4.23,CA,1690228769
413,luderitz,-26.6481,15.1594,13.96,62,100,4.35,NA,1690229006
414,abashiri,44.0213,144.2697,20.98,93,100,3.41,JP,1690229006
415,n'zeto,-7.2312,12.8666,21.04,89,5,2.91,AO,1690229006
416,st martin,50.3698,-4.4473,16.01,87,19,5.78,GB,1690229007
417,kaa-khem,51.6833,94.7333,16.05,62,98,1.35,RU,1690229008
418,palikir - national government center,6.9248,158.1611,24.41,88,100,1.03,FM,1690229009
419,fort mcmurray,56.7268,-111.381,27.77,50,0,3.09,CA,1690228811
420,zhelezinka,53.54,75.3072,16.73,65,3,3.64,KZ,1690229010
421,brisas de zicatela,15.8369,-97.0419,31.29,66,100,3.6,MX,1690229010
422,chibougamau,49.9168,-74.3659,18.79,77,100,4.23,CA,1690229010
423,keskin,39.6731,33.6136,18.6,64,0,4.78,TR,1690229011
424,gryazi,52.4966,39.9359,15.9,73,40,3.5,RU,1690229011
425,abou el hassan,36.4166,1.1962,30.06,31,15,3.67,DZ,1690229011
426,pea ridge,38.414,-82.3199,30.9,61,97,1.34,US,1690229012
427,vyazemskiy,47.5378,134.7525,19.67,95,2,2.14,RU,1690229012
428,withamsville,39.0623,-84.2883,31.62,62,40,5.66,US,1690229012
429,polyarnyy,69.1989,33.4478,9.3,96,100,5.42,RU,1690229013
430,gaitania,3.0906,-75.6723,26.11,62,50,1.94,CO,1690229013
431,zahedan,29.4963,60.8629,24.95,15,0,2.06,IR,1690229013
432,taksimo,56.3444,114.8794,15.53,83,9,0.34,RU,1690229014
433,vallenar,-28.5708,-70.7581,23.86,30,86,2.41,CL,1690229014
434,abbeville,50.1,1.8333,16.94,90,60,3.0,FR,1690229014
435,bel ombre,-4.6167,55.4167,25.91,83,20,6.69,SC,1690229015
436,antonio enes,-16.2325,39.9086,21.33,83,0,3.32,MZ,1690229015
437,sassnitz,54.5167,13.65,19.89,86,78,4.8,DE,1690229015
438,ponferrada,42.5466,-6.5962,18.79,63,15,2.24,ES,1690229016
439,huttlingen,48.8927,10.1006,17.69,89,22,2.41,DE,1690229016
440,tabas,33.5959,56.9244,32.78,11,0,6.64,IR,1690229016
441,jatai,-17.8814,-51.7144,28.61,23,0,3.14,BR,1690228986
442,zeya,53.75,127.2667,16.59,96,100,3.0,RU,1690229017
443,fortuna,40.5982,-124.1573,24.4,69,20,7.2,US,1690228925
444,la ronge,55.1001,-105.2842,25.14,41,75,3.09,CA,1690229023
445,bullhead city,35.1478,-114.5683,44.45,18,0,5.14,US,1690229023
446,mazamari,-11.3258,-74.5308,31.89,36,17,1.16,PE,1690229023
447,sao vicente,-23.9631,-46.3919,30.1,85,0,1.54,BR,1690228870
448,laguna,38.421,-121.4238,33.43,36,0,4.12,US,1690229024
449,oriximina,-1.7656,-55.8661,34.29,37,9,2.59,BR,1690229024
450,alvaraes,-3.2208,-64.8042,32.93,30,2,1.53,BR,1690229024
451,tres arroyos,-38.3739,-60.2798,9.27,53,99,3.2,AR,1690229025
452,patos,-7.0244,-37.28,32.4,29,98,6.62,BR,1690228856
453,luanda,-8.8368,13.2343,21.0,83,47,3.6,AO,1690228557
454,broken hill,-31.95,141.4333,5.67,92,0,4.18,AU,1690229025
455,praia da vitoria,38.7333,-27.0667,25.14,78,20,4.5,PT,1690229026
456,kingston,17.997,-76.7936,34.02,63,20,10.29,JM,1690229026
457,acarau,-2.8856,-40.12,27.71,69,13,7.89,BR,1690229026
458,egilsstadir,65.2653,-14.3948,7.95,87,75,5.66,IS,1690229027
459,rutland,43.6167,-73.0162,27.72,67,0,1.79,US,1690228761
460,aqsay,51.1678,52.995,20.44,60,99,3.5,KZ,1690229027
461,beyneu,45.3167,55.2,31.94,24,20,5.18,KZ,1690229028
462,sao felix do xingu,-6.6447,-51.995,34.21,24,6,1.92,BR,1690229028
463,yanqul,23.5905,56.5501,33.13,44,100,1.55,OM,1690229029
464,salinopolis,-0.6136,-47.3561,27.67,76,26,4.97,BR,1690229005
465,sokoni,-6.4333,39.55,24.92,81,66,7.26,TZ,1690229029
466,la'ie,21.6477,-157.9253,28.98,72,50,6.81,US,1690229030
467,manga,11.6636,-1.0731,25.01,83,97,1.37,BF,1690229030
468,vigan,17.5747,120.3869,26.4,82,100,4.02,PH,1690229030
469,remire-montjoly,4.9167,-52.2667,24.02,94,75,0.0,GF,1690229031
470,nouadhibou,20.931,-17.0347,23.99,69,73,7.72,MR,1690229031
471,kuusamo,65.9667,29.1833,11.39,98,100,1.79,FI,1690229031
472,asaita,11.5636,41.4394,33.17,37,100,2.99,ET,1690229032
473,taroudant,30.4703,-8.877,24.93,58,1,4.76,MA,1690229032
474,margate,51.3813,1.3862,16.06,78,100,2.24,GB,1690229033
475,zhigalovo,54.8097,105.1578,13.92,98,26,1.06,RU,1690229033
476,siguiri,11.6667,-9.5,27.04,68,100,0.55,GN,1690229033
477,pontes e lacerda,-15.2261,-59.3353,34.67,20,0,1.76,BR,1690229034
478,machali,-34.1833,-70.6667,15.6,48,0,2.06,CL,1690228822
479,labytnangi,66.6572,66.4183,19.07,62,100,2.93,RU,1690229035
480,maydolong,11.4992,125.5011,27.5,78,100,5.6,PH,1690229035
481,prado,-17.3411,-39.2208,22.09,83,5,3.78,BR,1690228998
482,senatobia,34.6176,-89.9687,33.81,69,2,1.34,US,1690229036
483,moramanga,-18.9333,48.2,12.58,99,21,0.46,MG,1690229036
484,ixtapa,20.7,-105.2,31.24,74,75,5.66,MX,1690229036
485,lesnikovo,55.2822,65.3175,16.24,59,16,1.89,RU,1690229037
486,sal rei,16.1833,-22.9167,27.11,69,40,7.2,CV,1690229037
487,quesnel,52.9999,-122.5029,20.28,60,40,2.57,CA,1690229037
488,bokovskaya,49.229,41.8306,21.5,62,100,2.59,RU,1690229038
489,newman,37.3138,-121.0208,35.59,9,63,0.73,US,1690229038
490,tarko-sale,64.9225,77.785,20.69,53,85,2.58,RU,1690229038
491,koulikoro,14.0,-7.75,30.41,49,100,3.37,ML,1690229039
492,peniche,39.3558,-9.3811,20.04,81,23,7.12,PT,1690228813
493,chaupimarca,-10.4333,-76.5333,10.65,21,0,4.58,PE,1690229039
494,island harbour,50.724,-1.2758,16.2,90,98,4.47,GB,1690229039
495,winnemucca,40.973,-117.7357,33.03,21,40,8.23,US,1690229040
496,tanjung pandan,-2.75,107.65,25.06,89,100,2.74,ID,1690229040
497,olinda,-8.0089,-34.8553,25.85,78,40,4.63,BR,1690228952
498,san ignacio de velasco,-16.3667,-60.95,32.75,20,0,3.24,BO,1690229041
499,peace river,56.2501,-117.286,19.17,88,100,3.6,CA,1690229041
500,tsetserleg,47.475,101.4542,9.8,89,93,1.12,MN,1690229041
501,jiamusi,46.8333,130.35,20.14,87,41,5.0,CN,1690229041
502,viedma,-40.8135,-62.9967,9.82,51,100,5.62,AR,1690229042
503,fortaleza,-3.7227,-38.5247,28.07,69,0,7.2,BR,1690228882
504,bamboo flat,11.7,92.7167,25.05,94,100,0.0,IN,1690229043
505,yuci,37.6803,112.7319,21.86,60,0,3.0,CN,1690228984
506,al khums,32.6486,14.2619,29.5,62,0,3.8,LY,1690229043
507,kone,-21.0595,164.8658,16.33,82,97,2.13,NC,1690229044
508,mawu,29.5923,107.3139,22.89,93,93,0.73,CN,1690229044
509,vilyuysk,63.7553,121.6247,16.36,96,99,3.58,RU,1690229045
510,segamat,2.5148,102.8158,23.99,87,36,1.22,MY,1690229045
511,borogontsy,62.6683,131.1683,18.95,82,19,2.32,RU,1690229046
512,tabou,4.423,-7.3528,25.23,84,100,3.97,CI,1690229046
513,woodlake,37.4211,-77.6793,30.67,73,75,1.54,US,1690229046
514,mokhsogollokh,61.4681,128.9203,17.86,83,1,1.99,RU,1690229047
515,villa gesell,-37.2639,-56.973,8.36,67,89,3.98,AR,1690228813
516,burnie,-41.0667,145.9167,8.77,80,97,3.37,AU,1690229048
517,colombo,6.9319,79.8478,27.97,88,94,3.49,LK,1690229004
518,york,40.1254,-77.0,29.55,62,0,0.0,US,1690229049
519,harper,4.375,-7.7169,25.34,83,95,4.39,LR,1690229050
520,luau,-10.7073,22.2247,20.4,35,0,1.74,AO,1690229051
521,sarandi del yi,-33.35,-55.6333,8.26,95,100,5.76,UY,1690229051
522,katabu,-4.9333,122.5167,22.29,91,54,2.5,ID,1690229051
523,wladyslawowo,54.7909,18.4009,19.19,93,97,1.95,PL,1690228760
524,palmer,42.1584,-72.3287,29.75,51,75,7.72,US,1690228855
525,derbent,42.0678,48.2899,23.89,81,99,5.07,RU,1690229052
526,mahina,-17.5065,-149.489,28.87,74,20,5.66,PF,1690229053
527,fenoarivo be,-18.4333,46.5667,18.18,52,83,1.07,MG,1690229054
528,huanren,41.2647,125.3667,19.38,99,27,1.39,CN,1690229054
529,anna regina,7.2644,-58.5077,29.1,68,71,3.52,GY,1690229054
530,emmett,43.8735,-116.4993,36.98,8,100,5.13,US,1690228946
531,namest nad oslavou,49.2073,16.1585,23.16,79,100,2.76,CZ,1690229055
532,sosnovo-ozerskoye,52.5249,111.5418,13.49,95,100,0.95,RU,1690229056
533,letlhakane,-21.4167,25.5833,16.28,21,14,1.42,BW,1690229056
534,narvik,68.4384,17.4272,16.32,89,95,0.52,NO,1690228862
535,east london,-33.0153,27.9116,12.21,65,0,2.48,ZA,1690228838
536,dalbandin,28.8947,64.4101,29.37,56,100,1.38,PK,1690229057
537,guerrero negro,27.9769,-114.0611,26.17,51,99,6.73,MX,1690229057
538,san julian,21.0167,-102.1667,25.55,35,79,2.69,MX,1690229058
539,cunha,-23.0744,-44.9597,25.41,65,20,1.97,BR,1690229058
540,hermosillo,29.0667,-110.9667,40.13,36,3,2.66,MX,1690228970
541,kayangel,8.0823,134.7173,27.71,81,100,4.92,PW,1690229059
542,ginir,7.1333,40.7,15.38,85,66,3.21,ET,1690229059
543,qingquan,30.4511,115.2559,26.65,87,100,1.51,CN,1690229060
544,ha'il,27.5219,41.6907,35.01,12,0,2.06,SA,1690229060
545,haiku-pauwela,20.9219,-156.3051,29.54,65,20,11.83,US,1690229060
546,yerofey pavlovich,53.9667,121.9667,16.87,76,99,1.04,RU,1690229061
547,shangrao,28.4532,117.9686,25.34,89,100,1.55,CN,1690229061
548,hue,16.4667,107.6,27.06,83,20,1.03,VN,1690228837
549,rabo de peixe,37.8,-25.5833,22.73,78,75,3.6,PT,1690229062
550,las khorey,11.1595,48.1967,33.36,49,100,6.8,SO,1690229062
551,puerto leguizamo,-0.1934,-74.7819,28.45,66,90,1.0,CO,1690229062
552,batangafo,7.3008,18.2833,23.08,90,75,1.84,CF,1690229062
553,walvis bay,-22.9575,14.5053,11.72,87,78,0.0,NA,1690229063
554,weirton heights,40.4084,-80.5392,31.2,50,56,1.34,US,1690229063
555,g'uzor,38.6214,66.2522,28.02,21,0,2.42,UZ,1690229063
556,nova vicosa,-17.8919,-39.3719,22.54,81,10,4.16,BR,1690229064
557,saint-pierre,-21.3393,55.4781,19.82,77,0,3.09,RE,1690229064
558,puquio,-14.7,-74.1333,18.58,25,5,5.89,PE,1690229064
559,tupa,-21.9347,-50.5136,26.93,33,10,2.74,BR,1690229065
560,borba,-4.3878,-59.5939,36.52,25,0,1.55,BR,1690228948
561,matoury,4.8483,-52.3317,23.98,94,75,5.14,GF,1690228907
562,ha tinh,18.3333,105.9,25.04,91,40,0.79,VN,1690229066
563,gaborone,-24.6545,25.9086,15.95,32,0,2.06,BW,1690228806
564,mo i rana,66.3128,14.1428,15.26,90,75,1.54,NO,1690229066
565,dem'yanovo,60.3511,47.0842,11.83,96,100,2.01,RU,1690229066
566,rayevskiy,54.0658,54.9468,15.5,88,12,2.12,RU,1690229067
567,sandpoint,48.2766,-116.5533,32.47,30,0,2.57,US,1690229067
568,richards bay,-28.783,32.0377,16.31,75,100,2.99,ZA,1690229068
569,chonchi,-42.6128,-73.8092,7.56,95,100,4.13,CL,1690229068
570,frolovo,49.7713,43.6622,16.88,65,29,2.68,RU,1690229068
571,amos,48.5669,-78.1162,17.43,96,100,2.37,CA,1690229047
