City_ID,City,Lat,Lng,Max Temp,Humidity,Cloudiness,Wind Speed,Country,Date
0,hamilton,39.1834,-84.5333,299.62,62,0,2.57,US,1690158511
1,edinburgh of the seven seas,-37.0676,-12.3116,286.57,79,38,11.39,SH,1690158753
2,vorgashor,67.5833,63.95,287.59,94,89,3.68,RU,1690158753
3,waitangi,-43.9535,-176.5597,287.49,95,100,0.45,NZ,1690158754
4,arkhangel'sk,64.5401,40.5433,283.55,94,100,2.12,RU,1690158754
5,anadyr,64.75,177.4833,287.04,82,100,2.0,RU,1690158754
6,ushuaia,-54.8,-68.3,272.96,74,0,4.12,AR,1690158755
7,tiksi,71.6872,128.8694,281.58,66,99,2.26,RU,1690158755
8,lebedyan',53.0194,39.1664,285.15,93,4,2.97,RU,1690158756
9,lazaro cardenas,17.9583,-102.2,303.69,66,31,3.62,MX,1690158544
10,watampone,-4.5386,120.3279,299.9,73,81,4.86,ID,1690158756
11,tevriz,57.509,72.4042,287.97,97,100,1.37,RU,1690158757
12,oranjemund,-28.55,16.4333,284.48,92,100,5.66,NA,1690158757
13,port-aux-francais,-49.35,70.2167,278.93,93,100,16.75,TF,1690158757
14,alice springs,-23.7,133.8833,281.9,61,100,5.66,AU,1690158758
15,georgetown,5.4112,100.3354,301.11,93,20,1.03,MY,1690158758
16,zaozersk,69.4005,32.4476,281.43,97,100,6.06,RU,1690158759
17,port elizabeth,-33.918,25.5701,285.31,71,0,7.2,ZA,1690158706
18,gourock,55.9616,-4.8179,284.49,77,32,1.25,GB,1690158760
19,sisimiut,66.9395,-53.6735,279.1,93,100,1.08,GL,1690158760
20,aasiaat,68.7098,-52.8699,276.06,98,100,2.33,GL,1690158761
21,bardai,11.65,7.2333,295.04,82,100,1.66,NG,1690158761
22,yellowknife,62.456,-114.3525,294.44,43,100,4.12,CA,1690158181
23,sinabang,2.4803,96.3801,299.68,79,99,0.34,ID,1690158762
24,puerto ayora,-0.7393,-90.3518,297.97,82,57,3.69,EC,1690158762
25,beledweyne,4.7358,45.2036,296.83,73,73,8.3,SO,1690158762
26,kununurra,-15.7667,128.7333,291.14,29,5,7.72,AU,1690158763
27,puerto baquerizo moreno,-0.9,-89.6,297.95,82,100,4.75,EC,1690158763
28,as sulayyil,20.4607,45.5779,306.29,11,100,4.24,SA,1690158763
29,puerto natales,-51.7236,-72.4875,268.94,92,15,1.49,CL,1690158764
30,las khorey,11.1595,48.1967,304.83,54,100,3.29,SO,1690158764
31,springs,-26.25,28.4,285.09,86,100,3.81,ZA,1690158764
32,tura,25.5198,90.2201,298.81,91,88,1.74,IN,1690158765
33,keflavik,64.0049,-22.5624,284.39,100,75,1.54,IS,1690158765
34,lompoc,34.6391,-120.4579,305.23,78,100,2.24,US,1690158765
35,klyuchi,52.2667,79.1667,294.87,46,30,1.95,RU,1690158766
36,grytviken,-54.2811,-36.5092,267.19,76,42,3.91,GS,1690158766
37,papatowai,-46.5619,169.4708,283.14,88,88,1.35,NZ,1690158766
38,constantia,44.1833,28.65,290.76,71,0,2.47,RO,1690158608
39,herval,-32.0236,-53.3956,285.78,73,97,2.67,BR,1690158472
40,tofol,5.3248,163.0078,300.03,89,100,1.54,FM,1690158768
41,susuman,62.7833,148.1667,287.13,60,93,3.27,RU,1690158768
42,novo aripuana,-5.1206,-60.3797,298.11,47,7,0.61,BR,1690158768
43,bethel,41.3712,-73.414,299.32,71,20,2.06,US,1690158539
44,myeik,12.4333,98.6,298.31,89,100,0.7,MM,1690158769
45,weno,7.4515,151.8468,301.26,77,100,4.46,FM,1690158769
46,sawa sawa,-4.4717,39.4846,296.43,87,28,5.58,KE,1690158770
47,port moresby,-9.4431,147.1797,298.83,69,75,3.6,PG,1690158600
48,tazovsky,67.4667,78.7,289.49,82,0,0.43,RU,1690158770
49,hotan,37.0997,79.9269,300.49,28,91,3.89,CN,1690158771
50,mudanya,40.3753,28.8822,296.28,77,0,2.25,TR,1690158771
51,songea,-10.6833,35.65,287.79,94,40,0.51,TZ,1690158771
52,ust-nera,64.5667,143.2,291.56,50,95,1.63,RU,1690158739
53,afega,-13.7973,-171.8531,305.15,62,20,4.63,WS,1690158772
54,wailua homesteads,22.0669,-159.378,301.59,80,75,7.72,US,1690158772
55,bay city,43.5945,-83.8889,297.27,74,40,3.6,US,1690158702
56,alofi,-19.0595,-169.9187,299.09,61,43,6.17,NU,1690158773
57,dudinka,69.4058,86.1778,286.83,67,100,4.13,RU,1690158773
58,college,64.8569,-147.8028,303.19,44,40,1.54,US,1690158773
59,jamestown,42.097,-79.2353,297.92,73,0,2.06,US,1690158774
60,ujae,8.9322,165.7642,302.1,77,20,7.15,MH,1690158774
61,devonport,-41.1667,146.35,285.42,97,100,9.32,AU,1690158661
62,blackmans bay,-43.0167,147.3167,286.22,75,100,2.99,AU,1690158775
63,taungdwingyi,20.0167,95.55,300.39,77,100,4.19,MM,1690158775
64,san antonio de pale,-1.4014,5.6325,295.86,80,100,4.68,GQ,1690158775
65,udachny,66.4167,112.4,293.4,68,100,5.75,RU,1690158776
66,klaksvik,62.2266,-6.589,280.66,80,100,6.72,FO,1690158776
67,palembang,-2.9167,104.7458,295.2,100,75,4.12,ID,1690158609
68,margaret river,-33.95,115.0667,285.77,70,4,6.38,AU,1690158777
69,iqaluit,63.7506,-68.5145,281.87,70,40,5.14,CA,1690158777
70,bredasdorp,-34.5322,20.0403,284.13,61,100,3.15,ZA,1690158777
71,kawm umbu,24.4767,32.9463,305.18,17,38,2.79,EG,1690158778
72,adamstown,-25.066,-130.1015,293.78,70,100,8.3,PN,1690158778
73,malabar,-33.9667,151.25,289.92,84,75,3.6,AU,1690158778
74,kingston,17.997,-76.7936,303.68,71,20,9.77,JM,1690158779
75,borovskoy,53.8,64.15,287.94,75,29,2.65,KZ,1690158779
76,miches,18.9836,-69.0476,299.66,88,90,3.42,DO,1690158779
77,kpandae,8.4689,-0.0113,294.88,99,83,1.97,GH,1690158779
78,severo-yeniseyskiy,60.3725,93.0408,293.41,66,81,0.27,RU,1690158780
79,ambilobe,-13.2,49.05,291.87,84,7,1.26,MG,1690158780
80,ilulissat,69.2167,-51.1,281.16,93,100,3.09,GL,1690158780
81,yoloten,37.2989,62.3597,299.08,16,0,4.05,TM,1690158781
82,mahibadhoo,3.7833,72.9667,301.66,76,100,4.54,MV,1690158781
83,kodiak,57.79,-152.4072,288.88,72,0,4.63,US,1690158782
84,longyearbyen,78.2186,15.6401,283.06,76,40,4.12,SJ,1690158782
85,bayanhongor,46.7167,100.1167,288.71,50,12,0.54,MN,1690158782
86,dunedin,-45.8742,170.5036,282.48,97,100,1.34,NZ,1690158783
87,thompson,55.7435,-97.8558,294.24,43,20,4.12,CA,1690158783
88,choma,-16.8065,26.9531,285.8,59,0,1.14,ZM,1690158784
89,miracema do tocantins,-9.5618,-48.3967,297.98,40,4,1.35,BR,1690158784
90,sassandra,4.95,-6.0833,297.3,91,99,2.05,CI,1690158784
91,griffith,41.5284,-87.4237,301.62,59,0,2.57,US,1690158785
92,elesbao veloso,-6.2019,-42.1403,298.42,39,43,2.79,BR,1690158785
93,nar'yan-mar,67.6713,53.087,288.08,90,100,2.34,RU,1690158786
94,gamba,-2.65,10.0,295.13,91,100,2.46,GA,1690158786
95,ribeira grande,38.5167,-28.7,295.25,85,7,2.68,PT,1690158786
96,doma,8.3833,8.35,296.61,96,100,3.54,NG,1690158787
97,uturoa,-16.7333,-151.4333,299.06,76,83,5.58,PF,1690158787
98,nova sintra,14.8667,-24.7167,296.45,78,94,4.31,CV,1690158787
99,punta arenas,-53.15,-70.9167,270.35,88,15,2.64,CL,1690158626
100,vadso,70.0744,29.7487,281.64,93,100,7.2,NO,1690158788
101,zabaykal'sk,49.6333,117.3167,292.22,77,78,0.86,RU,1690158789
102,minas de marcona,-15.2119,-75.1103,286.05,86,68,5.23,PE,1690158789
103,port sudan,19.6175,37.2164,304.79,41,37,0.73,SD,1690158789
104,puruandiro,20.0833,-101.5,289.76,90,100,2.49,MX,1690158790
105,ust'-kulom,61.6864,53.6902,286.85,82,100,1.9,RU,1690158791
106,maintirano,-18.0667,44.0167,295.49,85,94,4.39,MG,1690158791
107,olonkinbyen,70.9221,-8.7187,277.74,92,100,5.52,SJ,1690158791
108,bandon,51.7469,-8.7425,287.92,95,21,5.14,IE,1690158792
109,avarua,-21.2078,-159.775,299.18,89,40,5.66,CK,1690158792
110,afaahiti,-17.75,-149.2833,300.08,79,79,4.94,PF,1690158792
111,zhanjiang,21.2815,110.3427,301.84,76,87,1.41,CN,1690158793
112,solhan,38.9634,41.0293,293.53,61,0,2.5,TR,1690158793
113,stephenville,32.2207,-98.2023,310.59,21,0,4.63,US,1690158794
114,hawaiian paradise park,19.5933,-154.9731,300.88,83,100,4.12,US,1690158794
115,mersa matruh,31.3525,27.2453,299.26,83,0,4.12,EG,1690158794
116,choele choel,-39.2667,-65.6833,280.26,41,100,2.02,AR,1690158795
117,antofagasta,-23.65,-70.4,290.75,88,76,2.03,CL,1690158763
118,sao gabriel da cachoeira,-0.1303,-67.0892,295.9,97,51,0.31,BR,1690158795
119,luang prabang,19.8856,102.1347,298.13,94,100,0.0,LA,1690158796
120,albany,42.6001,-73.9662,297.84,71,61,1.32,US,1690158439
121,bontang,0.1333,117.5,299.83,84,66,4.44,ID,1690158796
122,tuscaloosa,33.2098,-87.5692,302.09,63,0,2.57,US,1690158637
123,talara,-4.5772,-81.2719,297.57,69,75,6.17,PE,1690158797
124,inirida,3.8653,-67.9239,296.76,95,51,0.97,CO,1690158797
125,invercargill,-46.4,168.35,282.98,88,96,0.11,NZ,1690158798
126,kone,-21.0595,164.8658,296.63,43,81,1.62,NC,1690158798
127,howrah,22.5892,88.3103,301.15,94,75,1.54,IN,1690158702
128,mabaruma,8.2,-59.7833,296.34,99,97,1.28,GY,1690158799
129,happy valley-goose bay,53.3168,-60.3315,293.32,88,75,4.63,CA,1690158611
130,verkhnevilyuysk,63.4453,120.3167,300.51,46,9,2.74,RU,1690158799
131,vilyuchinsk,52.9306,158.4028,297.3,67,22,6.16,RU,1690158800
132,melekeok village,7.4957,134.6367,303.46,79,75,4.12,PW,1690158800
133,san fernando,15.0286,120.6898,301.0,77,75,0.85,PH,1690158801
134,la passe,45.5549,-0.8967,293.14,90,100,5.11,FR,1690158801
135,tenenkou,14.4572,-4.9169,303.43,54,43,4.29,ML,1690158802
136,port mathurin,-19.6833,63.4167,296.14,74,73,6.79,MU,1690158802
137,paradip garh,20.3167,86.6167,301.73,81,98,5.58,IN,1690158802
138,plesetsk,62.708,40.2916,283.82,99,100,3.53,RU,1690158803
139,bamboo flat,11.7,92.7167,298.2,94,100,1.03,IN,1690158803
140,st. john's,47.5649,-52.7093,294.81,92,75,4.12,CA,1690158570
141,kittila,67.6647,24.8936,282.38,76,100,2.06,FI,1690158594
142,isafjordur,66.0755,-23.124,283.95,88,99,1.47,IS,1690158805
143,hithadhoo,-0.6,73.0833,301.3,77,38,4.25,MV,1690158805
144,bilibino,68.0546,166.4372,289.74,66,100,1.3,RU,1690158741
145,noosa heads,-26.3833,153.15,288.21,69,100,9.81,AU,1690158806
146,chonchi,-42.6128,-73.8092,277.1,91,100,1.09,CL,1690158806
147,okha,53.5739,142.9478,296.16,51,11,5.17,RU,1690158807
148,illizi,26.4833,8.4667,304.04,11,0,5.96,DZ,1690158807
149,pisco,-13.7,-76.2167,294.18,68,100,5.14,PE,1690158808
150,fort bragg,35.139,-79.006,301.97,94,100,4.63,US,1690158808
151,kangding,30.0513,101.9603,288.82,97,100,1.59,CN,1690158809
152,holualoa,19.6228,-155.9522,299.14,88,23,1.79,US,1690158809
153,stanley,54.868,-1.6985,284.42,92,20,4.12,GB,1690158809
154,kachug,53.9606,105.8817,290.98,90,100,0.43,RU,1690158810
155,santana,-0.0583,-51.1817,302.25,79,0,3.6,BR,1690158810
156,betio village,1.358,172.9211,304.17,73,27,4.58,KI,1690158811
157,san patricio,28.017,-97.5169,307.2,63,100,8.64,US,1690158811
158,la'ie,21.6477,-157.9253,304.13,74,7,6.39,US,1690158811
159,mokhsogollokh,61.4681,128.9203,300.36,50,15,1.54,RU,1690158812
160,al mawsil al jadidah,36.3346,43.0978,306.44,13,0,3.93,IQ,1690158812
161,ar rahad,12.7167,30.65,301.68,55,100,3.47,SD,1690158812
162,kapa'a,22.0752,-159.319,302.33,80,75,7.72,US,1690158813
163,buka,40.8108,69.1986,298.0,29,3,3.17,UZ,1690158813
164,boali,4.8005,18.1275,295.07,94,100,0.93,CF,1690158813
165,sotkamo,64.1333,28.4167,284.16,99,100,1.07,FI,1690158814
166,saipan,15.1355,145.701,302.54,100,100,4.12,MP,1690158814
167,berezovyy,51.6667,135.7,298.85,53,100,2.19,RU,1690158815
168,isangel,-19.55,169.2667,297.21,69,100,2.57,VU,1690158815
169,talnakh,69.4865,88.3972,286.6,75,99,0.19,RU,1690158815
170,buncrana,55.1333,-7.45,284.05,92,7,3.29,IE,1690158816
171,zakamensk,50.3741,103.2863,289.68,79,46,1.28,RU,1690158816
172,dalbandin,28.8947,64.4101,302.7,50,96,1.99,PK,1690158816
173,nizhnesortymskiy,62.4397,71.7603,293.01,64,98,1.11,RU,1690158817
174,vorkuta,67.5,64.0,287.51,95,96,3.58,RU,1690158817
175,kasese,0.1833,30.0833,294.03,58,72,1.01,UG,1690158817
176,palikir - national government center,6.9248,158.1611,302.56,79,100,2.06,FM,1690158818
177,utrik,11.2278,169.8474,301.76,78,97,8.4,MH,1690158818
178,kigoma,-4.8769,29.6267,291.48,82,0,0.0,TZ,1690158818
179,nova gradiska,45.255,17.3831,291.09,93,0,0.28,HR,1690158819
180,zaragoza,41.6561,-0.8773,297.84,57,0,7.72,ES,1690158536
181,kloulklubed,7.0419,134.2556,303.43,78,100,7.68,PW,1690158819
182,codrington,-38.2667,141.9667,286.21,78,100,4.04,AU,1690158819
183,kailua-kona,19.6406,-155.9956,301.21,88,17,1.79,US,1690158820
184,la ronge,55.1001,-105.2842,297.27,38,75,3.6,CA,1690158820
185,brooksville,28.5553,-82.3879,300.21,96,0,2.57,US,1690158652
186,usakos,-22.0,15.6,290.12,38,8,2.32,NA,1690158821
187,daru,-9.0763,143.2092,299.84,62,62,3.32,PG,1690158821
188,al qusayr,34.5091,36.5798,299.24,29,0,2.46,SY,1690158821
189,middelburg,-25.7751,29.4648,284.05,62,100,2.0,ZA,1690158822
190,greymouth,-42.4667,171.2,286.94,69,84,3.17,NZ,1690158822
191,wenling,28.3669,121.36,301.35,81,96,3.65,CN,1690158822
192,tehuitzingo,16.9408,-99.1719,299.34,84,97,0.86,MX,1690158823
193,genhe,50.7833,121.5167,297.0,45,26,2.94,CN,1690158823
194,flin flon,54.7682,-101.865,296.94,31,6,1.94,CA,1690158823
195,tangalle,6.024,80.7911,298.24,86,49,5.17,LK,1690158824
196,toliara,-23.35,43.6667,291.03,91,4,2.4,MG,1690158824
197,xichang,27.8964,102.2634,296.0,79,99,0.91,CN,1690158824
198,tual,-5.6667,132.75,298.25,77,98,11.34,ID,1690158825
199,la punta,-33.1837,-66.3127,282.07,47,15,3.83,AR,1690158825
200,basco,20.4487,121.9702,302.07,78,25,7.71,PH,1690158825
201,botou,38.0667,116.5667,303.79,60,13,2.82,CN,1690158826
202,lemvig,56.5486,8.3102,288.26,96,82,3.11,DK,1690158826
203,dauphin,51.1494,-100.0502,296.23,73,0,2.57,CA,1690158757
204,eastham,41.8301,-69.9739,297.16,71,0,1.54,US,1690158826
205,whitehorse,60.7161,-135.0538,295.58,60,100,2.24,CA,1690158619
206,ain sukhna,29.6002,32.3167,302.52,40,0,2.74,EG,1690158827
207,tsiombe,-25.3,45.4833,290.21,93,0,2.46,MG,1690158828
208,puerto quijarro,-17.7833,-57.7667,295.59,33,0,0.53,BO,1690158828
209,divnomorskoye,44.5011,38.1353,294.86,84,28,2.49,RU,1690158829
210,auki,-8.7676,160.7034,297.58,93,100,0.8,SB,1690158829
211,nizhneangarsk,55.7833,109.55,290.74,56,25,0.7,RU,1690158829
212,mount gambier,-37.8333,140.7667,286.5,71,94,2.72,AU,1690158829
213,fale old settlement,-9.3852,-171.2468,301.58,76,10,6.11,TK,1690158830
214,voss,60.623,6.4229,287.34,84,93,1.44,NO,1690158830
215,abatskoye,56.2875,70.4555,287.49,95,81,3.09,RU,1690158831
216,carnarvon,-24.8667,113.6333,289.79,31,0,7.75,AU,1690158831
217,newcastle,-32.9272,151.7765,289.1,93,75,3.6,AU,1690158302
218,tamanrasset,22.785,5.5228,303.1,11,0,2.57,DZ,1690158832
219,newman,37.3138,-121.0208,314.34,10,91,4.75,US,1690158832
220,extrema,-22.8547,-46.3183,287.4,69,2,1.4,BR,1690158833
221,queenstown,-31.8976,26.8753,279.39,81,60,1.36,ZA,1690158833
222,karratha,-20.7377,116.8463,291.34,34,0,11.33,AU,1690158833
223,litchfield,41.7668,-73.2501,295.74,76,1,0.45,US,1690158834
224,qaqortoq,60.7167,-46.0333,283.25,85,41,1.49,GL,1690158555
225,port saint john's,-31.6229,29.5448,289.2,70,100,7.2,ZA,1690158834
226,magong,23.5654,119.5863,301.29,79,99,2.72,TW,1690158835
227,praia da vitoria,38.7333,-27.0667,295.29,88,40,4.69,PT,1690158835
228,hadibu,12.65,54.0333,297.83,81,100,13.08,YE,1690158836
229,kristiansund,63.1115,7.732,286.18,87,39,5.66,NO,1690158836
230,nicoya,10.1483,-85.452,297.98,95,100,0.93,CR,1690158836
231,vernon,50.2581,-119.2691,310.33,16,9,0.51,CA,1690158610
232,acarau,-2.8856,-40.12,298.88,79,6,5.65,BR,1690158837
233,sao joao da barra,-21.6403,-41.0511,295.2,85,0,4.88,BR,1690158837
234,vilhena,-12.7406,-60.1458,293.53,43,0,1.1,BR,1690158575
235,dedovsk,55.8686,37.1222,285.17,94,7,2.47,RU,1690158838
236,veraval,20.9,70.3667,300.27,88,100,7.87,IN,1690158838
237,hammerfest,70.6634,23.6821,282.4,76,20,4.12,NO,1690158839
238,mersing,2.4312,103.8405,297.1,94,20,2.06,MY,1690158839
239,shadegan,30.6497,48.6647,307.12,10,5,4.72,IR,1690158839
240,atafu village,-8.5421,-172.5159,301.87,76,20,6.72,TK,1690158840
241,sandnessjoen,66.0217,12.6316,284.44,95,100,1.4,NO,1690158840
242,kiunga,-6.1219,141.2906,296.55,92,100,1.19,PG,1690158840
243,nizao,18.25,-70.2,301.19,83,90,3.9,DO,1690158841
244,crucecita,-28.95,-58.9833,288.5,59,30,5.79,AR,1690158841
245,taroa,8.7058,171.2275,301.68,79,15,7.73,MH,1690158841
246,kyzyl-kyya,40.2568,72.1279,295.55,29,0,2.9,KG,1690158842
247,rongelap,11.1635,166.8941,301.96,69,68,6.76,MH,1690158842
248,chiang kham,19.5233,100.3,298.64,90,12,0.56,TH,1690158842
249,rio grande,-32.035,-52.0986,289.21,74,100,4.42,BR,1690158843
250,gandajika,-6.75,23.95,294.88,43,1,1.77,CD,1690158843
251,mersrags,57.3354,23.1246,285.62,86,100,1.43,LV,1690158843
252,badger,64.8,-147.5333,303.14,42,0,1.54,US,1690158844
253,sillanwali,31.8261,72.5398,304.14,60,78,2.51,PK,1690158844
254,maysville,38.6412,-83.7444,300.03,61,0,1.54,US,1690158816
255,carnot,4.9409,15.8665,294.17,96,36,0.67,CF,1690158845
256,avsallar,36.616,31.7806,303.77,40,0,4.08,TR,1690158845
257,ulsteinvik,62.3432,5.8487,287.77,89,59,4.47,NO,1690158846
258,kerikeri,-35.2268,173.9474,288.66,84,15,1.34,NZ,1690158846
259,haiku-pauwela,20.9219,-156.3051,303.16,65,40,12.86,US,1690158847
260,north platte,41.1239,-100.7654,308.21,59,0,2.57,US,1690158847
261,yunyang,33.4474,112.7142,303.18,75,100,3.15,CN,1690158847
262,maydanshakhr,34.3956,68.8662,293.17,71,100,0.86,AF,1690158848
263,robore,-18.3333,-59.75,295.51,37,0,1.43,BO,1690158848
264,caxito,-8.5785,13.6643,291.55,95,35,0.84,AO,1690158849
265,slavyanka,42.8633,131.3847,295.77,91,100,1.03,RU,1690158849
266,olinda,-8.0089,-34.8553,297.0,88,40,2.06,BR,1690158717
267,malvik,63.4333,10.6833,285.61,92,40,3.6,NO,1690158850
268,pineville,31.3224,-92.4343,306.09,39,0,3.6,US,1690158851
269,kargil,34.5667,76.1,287.67,56,91,2.82,IN,1690158851
270,selfoss,63.9331,-20.9971,285.4,76,100,2.01,IS,1690158851
271,thunder bay,48.4001,-89.3168,297.14,60,75,4.12,CA,1690158654
272,imperatriz,-5.5264,-47.4917,297.4,41,1,1.5,BR,1690158852
273,chibougamau,49.9168,-74.3659,295.94,43,0,1.63,CA,1690158852
274,mildura,-34.2,142.15,282.08,89,0,5.74,AU,1690158651
275,narsingi,18.0333,78.4333,295.56,96,100,7.48,IN,1690158854
276,piura,-5.2,-80.6333,297.37,64,0,8.46,PE,1690158771
277,puerto armuelles,8.2833,-82.8667,301.14,77,100,1.34,PA,1690158855
278,porto barra do ivinheima,-22.9667,-53.6667,293.88,61,0,1.73,BR,1690158855
279,arraial do cabo,-22.9661,-42.0278,294.48,88,0,9.35,BR,1690158856
280,tolanaro,-25.0319,46.9987,292.19,88,0,1.03,MG,1690158856
281,new norfolk,-42.7826,147.0587,286.87,63,100,3.67,AU,1690158733
282,north bend,43.4065,-124.2243,297.73,68,0,5.66,US,1690158857
283,bam,29.106,58.357,302.34,15,100,4.83,IR,1690158857
284,tshabong,-26.05,22.45,284.84,15,89,4.12,BW,1690158857
285,san luis de la loma,17.2706,-100.8939,302.57,70,27,1.22,MX,1690158858
286,ta`u,-14.2336,-169.5144,299.77,71,6,6.15,AS,1690158858
287,west island,-12.1568,96.8225,298.14,83,40,5.14,CC,1690158858
288,tselinnoye,53.0833,85.6667,290.07,92,100,2.13,RU,1690158858
289,kilindoni,-7.9139,39.6668,298.09,76,98,7.37,TZ,1690158859
290,huron,41.1501,-82.5499,293.0,84,100,3.21,US,1690158859
291,tzimol,16.2667,-92.2667,290.49,90,100,2.12,MX,1690158859
292,al qubbah,32.7616,22.2424,300.73,40,0,6.37,LY,1690158860
293,miri,4.4148,114.0089,300.23,89,20,1.54,MY,1690158860
294,namibe,-15.1961,12.1522,290.58,72,60,4.01,AO,1690158860
295,harsin,34.2721,47.5861,294.6,16,0,1.31,IR,1690158861
296,warrnambool,-38.3833,142.4833,286.64,73,91,5.28,AU,1690158861
297,mentekab,3.4854,102.3484,298.12,99,100,0.45,MY,1690158862
298,cadale,2.7603,46.3222,298.14,83,96,8.82,SO,1690158862
299,luwingu,-10.2621,29.9271,284.61,82,0,1.91,ZM,1690158862
300,glace bay,46.1969,-59.957,295.69,97,75,5.14,CA,1690158863
301,kapuskasing,49.4169,-82.4331,291.2,94,100,3.6,CA,1690158758
302,humberto de campos,-2.5983,-43.4611,297.35,85,6,1.54,BR,1690158863
303,shalqar,47.8333,59.6,297.51,32,0,4.74,KZ,1690158864
304,lagonoy,13.7342,123.5207,299.33,87,100,3.92,PH,1690158864
305,enewetak,11.3474,162.3373,301.72,74,93,8.15,MH,1690158864
306,murud,18.3258,72.965,299.41,89,96,7.49,IN,1690158865
307,lihue,21.9789,-159.3672,301.92,74,75,7.72,US,1690158865
308,cidade velha,14.9167,-23.6167,299.41,78,40,4.12,CV,1690158865
309,ancud,-41.8697,-73.8203,277.26,84,100,3.81,CL,1690158751
310,az zawr,29.4425,48.2747,310.9,41,19,4.82,KW,1690158866
311,tokonou,9.65,-9.7833,293.34,98,97,1.74,GN,1690158866
312,maxixe,-23.8597,35.3472,290.14,89,2,4.02,MZ,1690158867
313,concepcion del uruguay,-32.4825,-58.2372,288.14,66,100,0.89,AR,1690158868
314,playa blanca,28.8643,-13.8281,296.26,77,58,8.11,ES,1690158868
315,winnemucca,40.973,-117.7357,312.18,6,0,6.32,US,1690158869
316,mhamid,29.82,-5.72,309.22,12,48,1.56,MA,1690158869
317,swakopmund,-22.6833,14.5333,284.25,84,22,1.47,NA,1690158625
318,neiafu,-18.65,-173.9833,299.53,69,20,4.12,TO,1690158870
319,nagqu,31.5,92.0,276.8,96,100,0.92,CN,1690158870
320,chernyshevskiy,63.0128,112.4714,299.23,45,49,3.02,RU,1690158870
321,las lomitas,-24.7096,-60.593,294.95,48,76,3.03,AR,1690158871
322,christchurch,-43.5333,172.6333,283.66,95,100,7.2,NZ,1690158676
323,mount pearl,47.5166,-52.7813,294.34,91,75,4.12,CA,1690158871
324,vrontados,38.4089,26.1328,304.07,48,0,4.63,GR,1690158872
325,los alamos,35.8881,-106.307,305.54,21,0,4.63,US,1690158652
326,papao,-17.75,-149.55,300.97,71,60,3.36,PF,1690158872
327,hermanus,-34.4187,19.2345,284.93,65,78,3.21,ZA,1690158873
328,atamyrat,37.8357,65.2106,300.95,23,0,3.3,TM,1690158873
329,fray luis a. beltran,-32.7912,-60.7282,287.03,52,0,6.17,AR,1690158873
330,kramfors,62.9316,17.7765,285.04,94,100,1.54,SE,1690158874
331,ola,59.5833,151.2833,294.34,65,74,1.72,RU,1690158874
332,kavaratti,10.5669,72.642,301.3,82,100,9.52,IN,1690158874
333,rio preto da eva,-2.6994,-59.6997,298.48,56,25,0.57,BR,1690158875
334,remire-montjoly,4.9167,-52.2667,298.17,94,0,1.03,GF,1690158875
335,mar del plata,-38.0023,-57.5575,281.53,85,40,4.47,AR,1690158875
336,yershov,51.3513,48.2766,290.21,88,99,1.95,RU,1690158876
337,petropavlovsk-kamchatsky,53.0452,158.6483,296.48,50,20,5.0,RU,1690158639
338,balabac,7.9868,117.0645,301.94,78,100,6.99,PH,1690158877
339,prado,-17.3411,-39.2208,294.84,88,28,3.74,BR,1690158877
340,es castell,39.8795,4.2854,300.53,100,0,2.57,ES,1690158877
341,murzuq,25.9155,13.9184,303.95,12,100,6.27,LY,1690158878
342,cascais,38.6979,-9.4215,293.79,83,3,11.18,PT,1690158878
343,spring valley,36.108,-115.245,317.01,16,75,5.66,US,1690158779
344,castillos,-34.1667,-53.8333,283.42,84,100,3.87,UY,1690158879
345,sibolga,1.7427,98.7792,298.54,84,75,0.84,ID,1690158879
346,melilla,35.2937,-2.9383,300.36,78,0,0.51,ES,1690158879
347,diok'nisi,41.6293,42.3917,290.69,98,98,0.72,GE,1690158880
348,kavalerovo,44.2661,135.0572,298.21,87,100,0.95,RU,1690158880
349,bengkulu,-3.8004,102.2655,296.81,93,100,4.86,ID,1690158880
350,katsuura,35.1333,140.3,300.48,66,16,3.02,JP,1690158880
351,zimovniki,47.1483,42.4633,293.09,84,19,1.53,RU,1690158881
352,woolgoolga,-30.1106,153.2007,290.4,61,50,7.55,AU,1690158881
353,peace river,56.2501,-117.286,297.32,38,100,2.57,CA,1690158741
354,gazojak,41.1875,61.4036,303.35,21,0,2.96,TM,1690158882
355,al kharijah,25.4514,30.5464,303.49,22,49,2.99,EG,1690158882
356,lianhe,47.1333,129.2667,293.44,94,100,1.91,CN,1690158882
357,iskateley,67.6803,53.1512,288.02,90,100,2.4,RU,1690158883
358,nosy varika,-20.5833,48.5333,291.39,91,8,1.54,MG,1690158883
359,usogorsk,63.4106,48.6872,286.43,97,100,2.89,RU,1690158883
360,cannonvale,-20.2833,148.7,288.81,90,100,6.06,AU,1690158884
361,muynoq,43.7683,59.0214,302.67,28,0,3.78,UZ,1690158884
362,port alfred,-33.5906,26.891,283.81,84,6,2.24,ZA,1690158649
363,paracuru,-3.41,-39.0306,299.88,84,8,4.47,BR,1690158885
364,kirensk,57.7853,108.1119,297.58,54,5,0.65,RU,1690158885
365,bonthe,7.5264,-12.505,298.16,87,100,3.25,SL,1690158885
366,nuku'alofa,-21.1333,-175.2,298.34,61,40,3.6,TO,1690158886
367,nishinoomote,30.7333,131.0,301.46,94,40,4.63,JP,1690158886
368,brisas de zicatela,15.8369,-97.0419,301.44,65,75,2.57,MX,1690158886
369,sur,22.5667,59.5289,300.41,79,100,2.98,OM,1690158886
370,ponta delgada,37.7333,-25.6667,294.55,88,40,4.63,PT,1690158887
371,punta del este,-34.9667,-54.95,285.21,84,100,5.66,UY,1690158887
372,polyarnyy,69.1989,33.4478,282.43,96,100,7.04,RU,1690158887
373,praya,14.9215,-23.5087,299.45,78,40,4.12,CV,1690158888
374,epinay-sur-orge,48.6734,2.3107,293.13,80,0,4.63,FR,1690158888
375,mount isa,-20.7333,139.5,286.02,38,0,8.23,AU,1690158635
376,port douglas,-16.4833,145.4667,294.7,65,73,3.64,AU,1690158708
377,inderbor,48.55,51.7833,299.13,35,100,3.18,KZ,1690158889
378,hafar al-batin,28.4328,45.9708,306.47,15,0,1.54,SA,1690158890
379,ballina,-28.8667,153.5667,289.14,61,100,7.09,AU,1690158890
380,siracusa,37.0881,15.2792,304.99,45,0,1.32,IT,1690158890
381,ramnagar,29.4,79.1167,298.71,88,100,2.05,IN,1690158890
382,hastings,50.8552,0.5729,290.11,44,44,5.54,GB,1690158891
383,santo antonio do sudoeste,-26.0736,-53.7253,289.57,81,5,1.44,BR,1690158891
384,burley,42.5357,-113.7928,307.76,27,0,2.06,US,1690158892
385,naze,28.3667,129.4833,301.66,81,36,4.12,JP,1690158892
386,crane,31.3974,-102.3501,310.06,16,42,4.3,US,1690158893
387,nantucket,41.2835,-70.0995,297.18,75,0,3.9,US,1690158893
388,taoudenni,22.6783,-3.9836,312.22,17,90,2.42,ML,1690158893
389,kasongo-lunda,-6.4667,16.8167,294.92,37,29,0.58,CD,1690158894
390,panama city beach,30.1766,-85.8055,300.38,87,75,0.89,US,1690158894
391,tegueste,28.5167,-16.3167,293.52,87,75,9.39,ES,1690158894
392,anaconda,46.1285,-112.9423,304.7,69,96,1.41,US,1690158895
393,kovdor,67.5662,30.4758,280.98,94,100,1.79,RU,1690158895
394,berdigestyakh,62.0989,126.6992,301.31,44,1,1.65,RU,1690158895
395,kourou,5.1552,-52.6478,298.18,90,14,3.08,GF,1690158896
396,pavlohrad,48.5167,35.8667,286.94,90,0,2.92,UA,1690158896
397,rzhanitsa,53.4284,33.923,284.6,89,100,2.4,RU,1690158896
398,riosucio,5.4216,-75.7032,292.04,93,99,0.72,CO,1690158897
399,lebu,-37.6167,-73.65,281.74,84,62,2.0,CL,1690158897
400,urangan,-25.3,152.9,289.69,81,100,10.1,AU,1690158898
401,lata,40.1629,-8.3327,288.63,99,63,0.91,PT,1690158898
402,mezhdurechenskiy,59.6,65.9333,288.68,96,100,2.61,RU,1690158898
403,makhambet,47.6667,51.5833,298.95,33,95,3.36,KZ,1690158898
404,sumbawa besar,-8.5,117.4333,300.69,59,12,3.46,ID,1690158899
405,harstad,68.799,16.5293,286.83,99,100,0.45,NO,1690158900
406,luderitz,-26.6481,15.1594,286.69,55,100,6.71,NA,1690158900
407,rikaze,29.25,88.8833,284.0,80,100,1.83,CN,1690158900
408,nichinan,31.6,131.3667,299.97,78,32,2.61,JP,1690158901
409,gross kreutz,52.4,12.7833,293.74,63,100,4.33,DE,1690158901
410,bradford,53.7939,-1.7521,284.83,98,40,5.14,GB,1690158902
411,agadez,19.75,10.25,303.44,29,100,2.63,NE,1690158902
412,kenai,60.5544,-151.2583,291.2,84,0,6.17,US,1690158902
413,inarajan village,13.2736,144.7484,303.59,86,100,6.58,GU,1690158903
414,nanakuli,21.3906,-158.1547,304.12,58,40,5.14,US,1690158903
415,massenya,11.4039,16.1705,298.75,75,42,2.84,TD,1690158904
416,la paz,-16.5,-68.15,283.14,29,20,2.57,BO,1690158873
417,ulladulla,-35.35,150.4667,287.28,59,0,2.21,AU,1690158904
418,severnoye,56.3491,78.3619,291.05,70,96,2.55,RU,1690158905
419,axim,4.8699,-2.2405,297.82,88,100,2.31,GH,1690158905
420,camiri,-20.05,-63.5167,289.34,72,34,0.36,BO,1690158906
421,starogard gdanski,53.964,18.5264,288.09,93,83,3.34,PL,1690158906
422,smithers,54.7804,-127.1743,291.33,52,75,2.06,CA,1690158614
423,petauke,-14.2426,31.3253,287.81,66,0,2.35,ZM,1690158907
424,bulgan,48.8125,103.5347,290.87,72,1,1.62,MN,1690158907
425,tucano,-10.9631,-38.7867,290.89,91,0,1.8,BR,1690158907
426,yonggwang-up,40.0183,127.4547,302.28,63,100,1.07,KP,1690158908
427,leua,48.2156,18.6071,290.88,83,75,2.14,SK,1690158908
428,kushiro,42.975,144.3747,293.68,94,75,1.54,JP,1690158909
429,maba,24.6841,113.5984,304.77,70,38,1.28,CN,1690158909
430,aldinga beach,-35.2793,138.4604,286.07,73,92,1.13,AU,1690158910
431,high rock,26.6208,-78.2833,303.16,75,37,1.91,BS,1690158910
432,port lincoln,-34.7333,135.8667,286.47,71,100,1.72,AU,1690158911
433,ghat,24.9647,10.1728,303.57,12,41,1.6,LY,1690158911
434,eforie sud,44.0229,28.6494,290.82,71,0,2.58,RO,1690158911
435,merowe,18.4833,31.8167,304.72,12,11,4.03,SD,1690158911
436,igdir,39.9237,44.045,300.11,44,0,5.14,TR,1690158634
437,cabugao,17.7931,120.4578,303.07,67,89,0.68,PH,1690158912
438,lyubinskiy,55.1542,72.6925,288.97,93,6,2.79,RU,1690158913
439,vila franca do campo,37.7167,-25.4333,294.38,87,25,2.57,PT,1690158913
440,khandyga,62.6667,135.6,298.4,48,11,0.61,RU,1690158913
441,tingi,-11.3,35.0333,287.29,81,18,1.09,TZ,1690158913
442,butterworth,5.3991,100.3638,301.17,93,20,1.03,MY,1690158914
443,puerto aysen,-45.4,-72.7,272.43,97,100,1.69,CL,1690158728
444,yaren,-0.5472,166.916,301.81,72,12,1.73,NR,1690158915
445,nuuk,64.1835,-51.7216,284.49,82,4,3.6,GL,1690158915
446,akureyri,65.6835,-18.0878,284.11,87,100,0.0,IS,1690158916
447,sorong,-0.8833,131.25,299.29,82,81,6.16,ID,1690158916
448,saint-denis,48.9167,2.3333,293.42,83,0,5.14,FR,1690158916
449,ostersund,63.1792,14.6357,283.49,37,100,2.24,SE,1690158917
450,boa vista,2.8197,-60.6733,298.14,94,100,1.03,BR,1690158917
451,tchollire,8.4022,14.1698,294.47,88,100,1.23,CM,1690158917
452,ghadamis,30.1337,9.5007,305.51,12,0,5.1,LY,1690158918
453,flying fish cove,-10.4217,105.6791,297.97,83,75,5.66,CX,1690158918
454,samarinda,-0.5,117.15,299.51,86,90,2.26,ID,1690158867
455,mundybash,53.211,87.2983,288.53,96,100,1.47,RU,1690158919
456,mammoth lakes,37.6485,-118.9721,298.04,32,40,1.54,US,1690158919
457,kegeyli shahar,42.7767,59.6078,299.2,25,0,1.38,UZ,1690158920
458,volda,62.1476,6.0741,287.64,100,20,0.0,NO,1690158920
459,horta,38.5333,-28.6333,294.83,85,15,2.68,PT,1690158920
460,freren,52.4833,7.55,291.49,1,100,6.87,DE,1690158921
461,laascaanood,8.4774,47.3597,296.74,61,99,14.37,SO,1690158921
462,trubchevsk,52.5798,33.7644,284.61,85,100,2.48,RU,1690158922
463,thurso,58.5927,-3.5259,283.29,81,100,6.24,GB,1690158922
464,ataq,14.5377,46.8319,300.29,46,99,5.14,YE,1690158922
465,el porvenir,13.7617,-87.3458,301.78,75,50,2.12,HN,1690158923
466,bandar-e anzali,37.4727,49.4622,298.58,69,93,1.58,IR,1690158923
467,atasu,48.6814,71.6433,295.8,40,5,4.85,KZ,1690158924
468,kuala tungkal,-0.8167,103.4667,296.73,91,100,3.02,ID,1690158924
469,poteau,35.0537,-94.6236,306.9,46,0,0.0,US,1690158925
470,storm lake,42.6411,-95.2097,301.73,54,0,0.0,US,1690158925
471,cabedelo,-6.9811,-34.8339,296.52,85,10,5.36,BR,1690158925
472,camocim,-2.9022,-40.8411,298.6,78,9,5.35,BR,1690158684
473,yuanping,38.7153,112.7575,301.63,39,7,1.39,CN,1690158926
474,seeb,23.6703,58.1891,303.2,74,0,2.57,OM,1690158847
475,lerwick,60.1545,-1.1494,283.15,86,100,7.93,GB,1690158927
476,bodo,67.28,14.405,286.36,92,100,1.03,NO,1690158927
477,asau,46.4333,26.4,287.66,73,2,2.37,RO,1690158928
478,saint-pierre,-21.3393,55.4781,293.47,73,0,2.57,RE,1690158928
479,dzhangala,49.2167,50.3333,297.05,57,86,4.8,KZ,1690158928
480,east london,-33.0153,27.9116,287.51,68,99,7.58,ZA,1690158929
481,dawei,14.0833,98.2,297.8,94,99,1.91,MM,1690158929
482,srivardhan,18.0333,73.0167,299.49,89,97,7.67,IN,1690158929
483,zhezqazghan,47.7833,67.7667,297.13,39,0,3.7,KZ,1690158930
484,greenville,35.6127,-77.3663,301.24,93,40,2.57,US,1690158930
485,sao vicente,-23.9631,-46.3919,298.86,26,4,1.61,BR,1690158893
486,ende,-8.8432,121.6623,299.15,74,75,4.12,ID,1690158931
487,aydarken,39.9443,71.3429,292.92,46,0,1.43,KG,1690158931
488,xishan,27.6667,113.5,302.43,78,64,1.6,CN,1690158932
489,mollendo,-17.0231,-72.0147,289.77,81,88,1.67,PE,1690158932
490,kulgam,33.65,75.0167,291.34,84,11,0.62,IN,1690158932
491,stenungsund,58.0705,11.8181,288.39,91,100,4.54,SE,1690158933
492,egilsstadir,65.2653,-14.3948,281.1,93,100,2.06,IS,1690158933
493,ban phan don,17.1427,102.9726,299.81,96,100,2.29,TH,1690158933
494,lodwar,3.1191,35.5973,298.79,55,67,5.37,KE,1690158934
495,puerto lempira,15.2667,-83.7667,301.23,74,40,3.6,HN,1690158934
496,lionel town,17.8101,-77.2406,304.09,72,0,3.44,JM,1690158934
497,parit raja,1.8681,103.1124,299.82,90,99,1.01,MY,1690158935
498,lampazos de naranjo,27.0167,-100.5167,309.54,27,0,4.95,MX,1690158935
499,isla mujeres,21.2311,-86.731,303.8,85,84,4.73,MX,1690158936
500,belur,13.1667,75.8667,292.7,93,100,5.14,IN,1690158936
501,arawa,-6.2132,155.5367,304.08,60,93,0.98,PG,1690158936
502,ambovombe,-25.1667,46.0833,290.99,82,0,2.67,MG,1690158937
503,guaduas,5.0669,-74.595,295.18,66,50,1.61,CO,1690158937
504,sabang,5.8933,95.3214,301.4,72,53,9.26,ID,1690158937
505,dankov,53.2515,39.1555,285.65,93,11,2.96,RU,1690158938
506,morehead city,34.7229,-76.726,301.49,80,0,2.68,US,1690158938
507,kuraymah,18.55,31.85,304.75,12,12,3.97,SD,1690158938
508,aioun,16.6614,-9.6149,306.92,40,28,2.13,MR,1690158939
509,ixtapa,20.7,-105.2,303.72,70,75,6.17,MX,1690158939
510,page,36.9147,-111.4558,314.03,8,0,2.24,US,1690158939
511,nouadhibou,20.931,-17.0347,296.14,78,16,7.2,MR,1690158940
512,mouila,-1.8685,11.0559,295.33,92,39,1.23,GA,1690158940
513,hasaki,35.7333,140.8333,302.37,69,87,4.01,JP,1690158940
514,suntar,62.1444,117.6319,300.37,46,6,1.49,RU,1690158941
515,wotho,10.1657,166.0102,302.05,71,54,7.44,MH,1690158941
516,columbus,39.9612,-82.9988,297.74,85,75,2.57,US,1690158701
517,new plymouth,-39.0667,174.0833,284.99,77,49,1.52,NZ,1690158942
518,uvalde,29.3669,-99.767,307.7,40,0,4.12,US,1690158701
519,porto novo,6.4965,2.6036,297.05,97,98,2.48,BJ,1690158942
520,pikeville,37.4793,-82.5188,299.6,70,0,2.57,US,1690158774
521,chetwayi,10.5333,76.05,298.18,86,100,2.05,IN,1690158943
522,khanty-mansiysk,61.0042,69.0019,290.21,100,20,0.0,RU,1690158943
523,laguna,38.421,-121.4238,311.31,27,0,5.66,US,1690158880
524,al jawf,29.5,38.75,301.05,29,0,3.4,SA,1690158944
525,banka,24.8833,86.9167,302.14,73,31,3.24,IN,1690158944
526,chui,-33.6971,-53.4616,284.34,80,100,4.21,UY,1690158945
527,san carlos de bariloche,-41.1456,-71.3082,274.01,64,75,3.6,AR,1690158945
528,juneau,58.3019,-134.4197,286.71,97,100,5.14,US,1690158791
529,along,28.1667,94.7667,297.7,97,100,0.22,IN,1690158946
530,ankazoabo,-22.2833,44.5167,288.83,75,0,2.59,MG,1690158946
531,turkmenbasy,40.0222,52.9552,301.58,28,0,2.06,TM,1690158946
532,mokwa,9.2833,5.05,296.12,99,100,2.43,NG,1690158947
533,borkum,53.5809,6.6915,291.12,88,8,7.71,DE,1690158947
534,bellmere,-27.0875,152.923,292.64,58,100,5.11,AU,1690158948
535,goulburn,-34.75,149.7167,283.97,63,0,1.6,AU,1690158657
536,merrill,45.1805,-89.6835,298.25,41,0,2.06,US,1690158937
537,rodino,52.5,80.25,294.15,53,10,2.5,RU,1690158949
538,caleta de carquin,-11.0925,-77.6267,292.82,82,2,4.57,PE,1690158950
539,tianpeng,30.9866,103.9393,297.41,87,100,2.37,CN,1690158950
540,saint johnsbury,44.4192,-72.0151,296.31,75,0,0.0,US,1690158951
541,arpacay,40.8487,43.3291,289.95,88,13,2.58,TR,1690158951
542,la malbaie,47.6575,-70.1559,296.45,86,19,1.94,CA,1690158952
543,guerrero negro,27.9769,-114.0611,295.67,68,60,7.29,MX,1690158710
544,kurchum,48.5722,83.6542,296.03,33,1,3.02,KZ,1690158953
545,gisborne,-38.6533,178.0042,286.36,55,4,2.35,NZ,1690158953
546,san rafael,-34.6177,-68.3301,280.63,48,88,3.81,AR,1690158808
547,shenjiamen,29.9576,122.298,299.92,87,69,8.0,CN,1690158954
548,guariba,-21.36,-48.2283,290.86,55,0,1.15,BR,1690158954
549,versailles,48.8,2.1333,292.08,82,0,3.6,FR,1690158955
550,bac lieu,9.285,105.7244,300.74,81,82,5.53,VN,1690158955
551,gassol,8.5333,10.4667,296.69,92,100,1.65,NG,1690158955
552,nabire,-3.3667,135.4833,301.81,66,67,1.82,ID,1690158956
553,tangier,35.7806,-5.8137,299.73,94,66,2.06,MA,1690158956
554,san nicolas,18.1725,120.5953,303.1,79,75,1.54,PH,1690158956
555,fig tree,-33.0317,148.7511,286.68,58,0,2.16,AU,1690158957
556,broken hill,-31.95,141.4333,283.11,59,0,6.44,AU,1690158670
557,mossel bay,-34.1831,22.146,281.11,83,11,5.09,ZA,1690158958
558,cockburn town,21.4612,-71.1419,302.13,70,40,4.12,TC,1690158948
559,tyuratam,45.6507,63.3156,302.09,25,0,3.84,KZ,1690158959
560,canatlan,24.5167,-104.7833,293.59,63,98,0.96,MX,1690158961
561,patterson,37.4716,-121.1297,311.51,9,56,3.21,US,1690158705
562,carbonear,47.7332,-53.2148,295.06,98,99,3.99,CA,1690158962
563,lianzhou,24.7811,112.3825,302.84,79,31,0.82,CN,1690158963
564,pimentel,-6.8367,-79.9342,296.31,83,40,8.75,PE,1690158964
565,mili,6.0815,171.735,300.82,82,85,6.62,MH,1690158964
566,paita,-5.0892,-81.1144,295.67,79,0,8.11,PE,1690158966
567,sungai penuh,-2.0833,101.3833,291.18,91,100,0.37,ID,1690158966
568,laibin,23.7,109.2667,302.17,74,91,2.59,CN,1690158966
569,santa cruz,-17.8,-63.1667,296.85,83,20,2.06,BO,1690158967
570,kidal,18.4411,1.4078,307.65,31,71,3.91,ML,1690158967
571,cabo san lucas,22.8909,-109.9124,304.85,83,100,4.63,MX,1690158777
572,novyy urgal,51.0736,132.5642,290.88,96,100,1.5,RU,1690158968
573,n'zeto,-7.2312,12.8666,294.2,86,93,4.36,AO,1690158969
574,tucumcari,35.1717,-103.725,308.67,17,0,2.57,US,1690158969
575,iraquara,-12.2486,-41.6194,290.99,96,9,1.71,BR,1690158970
576,el calafate,-50.3408,-72.2768,266.8,75,14,0.77,AR,1690158970
577,bu'aale,1.0833,42.5833,294.68,94,45,2.11,SO,1690158970
578,san pedro pochutla,15.7333,-96.4667,297.99,80,91,1.35,MX,1690158971
579,yorkton,51.2167,-102.4677,297.06,57,0,5.14,CA,1690158971
580,ma'an,26.9775,110.7211,301.95,76,100,1.87,CN,1690158972
581,aldan,58.6031,125.3894,296.69,56,81,0.78,RU,1690158972
582,isla del bosque,22.7333,-105.85,302.84,72,99,2.69,MX,1690158973
583,norderney,53.7,7.15,290.16,88,11,9.06,DE,1690158973
584,zahedan,29.4963,60.8629,299.1,19,0,2.06,IR,1690158784
585,grand falls-windsor,48.9332,-55.6649,295.1,90,100,0.89,CA,1690158974
