City_ID,City,Lat,Lng,Max Temp,Humidity,Cloudiness,Wind Speed,Country,Date
0,puerto natales,-51.7236,-72.4875,-4.42,87,100,0.82,CL,1690230691
1,tiksi,71.6872,128.8694,3.75,82,20,1.98,RU,1690230691
2,waitangi,-43.9535,-176.5597,12.12,98,100,2.24,NZ,1690230692
3,vanimo,-2.6741,141.3028,24.97,89,51,1.33,PG,1690230693
4,susuman,62.7833,148.1667,14.84,57,28,1.43,RU,1690230693
5,sabang,5.8933,95.3214,28.31,73,95,9.45,ID,1690230693
6,aasiaat,68.7098,-52.8699,3.51,96,98,3.01,GL,1690230694
7,smithers,54.7804,-127.1743,15.18,72,75,1.03,CA,1690230590
8,adamstown,-25.066,-130.1015,19.94,68,64,3.52,PN,1690230694
9,jamestown,42.097,-79.2353,26.92,69,75,4.12,US,1690230646
10,minas de marcona,-15.2119,-75.1103,16.71,63,0,6.62,PE,1690230695
11,vilyuysk,63.7553,121.6247,16.09,95,100,3.55,RU,1690230695
12,kerikeri,-35.2268,173.9474,7.73,94,17,2.26,NZ,1690230696
13,port mathurin,-19.6833,63.4167,23.07,77,50,7.36,MU,1690230696
14,itoman,26.1247,127.6694,29.43,82,20,5.66,JP,1690230697
15,west island,-12.1568,96.8225,24.99,78,100,8.75,CC,1690230697
16,ushuaia,-54.8,-68.3,-0.19,69,0,1.03,AR,1690230697
17,selfoss,63.9331,-20.9971,15.02,88,63,3.33,IS,1690230698
18,pisco,-13.7,-76.2167,23.03,60,0,7.2,PE,1690230698
19,mossel bay,-34.1831,22.146,11.21,68,0,2.8,ZA,1690230698
20,hammerfest,70.6634,23.6821,11.25,87,75,3.6,NO,1690230699
21,klyuchi,52.2667,79.1667,18.65,60,34,3.49,RU,1690230699
22,la passe,45.5549,-0.8967,20.13,82,54,6.73,FR,1690230700
23,al kharijah,25.4514,30.5464,33.07,15,2,3.06,EG,1690230700
24,sinop,41.7711,34.8709,15.29,87,0,1.89,TR,1690230700
25,port-aux-francais,-49.35,70.2167,3.87,72,100,11.2,TF,1690230701
26,kendari,-3.945,122.4989,21.62,95,49,1.37,ID,1690230701
27,badger,64.8,-147.5333,29.17,54,40,1.54,US,1690230702
28,egilsstadir,65.2653,-14.3948,6.95,93,75,4.63,IS,1690230702
29,faya-largeau,17.9257,19.1043,35.28,13,25,2.61,TD,1690230702
30,nova sintra,14.8667,-24.7167,22.75,80,100,7.45,CV,1690230703
31,viedma,-40.8135,-62.9967,8.42,57,97,5.3,AR,1690230703
32,puerto ayora,-0.7393,-90.3518,28.98,97,76,2.24,EC,1690230704
33,flying fish cove,-10.4217,105.6791,23.82,88,100,3.6,CX,1690230704
34,remire-montjoly,4.9167,-52.2667,24.02,94,75,0.0,GF,1690230705
35,grytviken,-54.2811,-36.5092,-6.03,77,18,4.59,GS,1690230705
36,mahina,-17.5065,-149.489,28.87,74,20,5.66,PF,1690230705
37,bilibino,68.0546,166.4372,10.2,90,100,0.62,RU,1690230706
38,invercargill,-46.4,168.35,6.82,88,88,3.99,NZ,1690230706
39,el gouna,27.3942,33.6782,33.05,31,0,3.76,EG,1690230707
40,nema,57.5067,50.5011,12.07,94,19,2.12,RU,1690230707
41,aripuana,-9.1667,-60.6333,33.03,31,5,0.85,BR,1690230708
42,carnarvon,-24.8667,113.6333,15.25,84,5,6.07,AU,1690230708
43,quellon,-43.1167,-73.6167,8.14,93,100,10.8,CL,1690230708
44,college,64.8569,-147.8028,29.21,54,40,1.54,US,1690230709
45,holualoa,19.6228,-155.9522,27.1,80,20,5.14,US,1690230709
46,uliastay,47.7417,96.8444,10.49,64,24,1.61,MN,1690230709
47,papatowai,-46.5619,169.4708,7.22,85,87,3.26,NZ,1690230710
48,toamasina,-18.1667,49.3833,20.0,94,75,1.03,MG,1690230710
49,saipan,15.1355,145.701,27.58,100,0,1.54,MP,1690230710
50,pangody,65.85,74.4859,17.99,79,19,3.01,RU,1690230711
51,el nido,11.1858,119.3956,26.86,86,100,11.71,PH,1690230711
52,canutillo,31.9115,-106.6003,38.92,17,0,5.66,US,1690230711
53,yangjiang,21.85,111.9667,24.54,88,86,1.02,CN,1690230620
54,emerald,-23.5333,148.1667,11.3,80,52,10.31,AU,1690230712
55,patterson,37.4716,-121.1297,33.36,8,38,2.56,US,1690230712
56,chashniki,54.8569,29.1607,15.28,91,97,2.1,BY,1690230713
57,blackmans bay,-43.0167,147.3167,8.07,83,97,2.03,AU,1690230713
58,hasaki,35.7333,140.8333,24.06,88,62,3.83,JP,1690230713
59,queenstown,-31.8976,26.8753,4.36,53,0,1.06,ZA,1690230714
60,sauri,11.7266,6.7837,24.21,75,12,2.8,NG,1690230714
61,kone,-21.0595,164.8658,18.3,74,98,2.26,NC,1690230714
62,salalah,17.0151,54.0924,25.05,100,100,2.06,OM,1690230715
63,islamorada,24.9243,-80.6278,36.0,78,0,1.79,US,1690230715
64,luganville,-15.5333,167.1667,24.62,93,100,3.71,VU,1690230715
65,nurmes,63.5421,29.1397,11.25,97,100,1.1,FI,1690230716
66,talnakh,69.4865,88.3972,13.45,72,90,1.11,RU,1690230716
67,yellowknife,62.456,-114.3525,25.29,41,100,3.6,CA,1690230716
68,kourou,5.1552,-52.6478,24.03,88,52,3.89,GF,1690230716
69,cidade velha,14.9167,-23.6167,27.26,74,75,5.66,CV,1690230717
70,san patricio,28.017,-97.5169,36.76,39,8,8.06,US,1690230717
71,hermanus,-34.4187,19.2345,5.45,66,0,2.75,ZA,1690230717
72,edinburgh of the seven seas,-37.0676,-12.3116,14.87,79,79,16.11,SH,1690230718
73,lagos,6.5833,3.75,27.18,91,100,2.35,NG,1690230234
74,ulsteinvik,62.3432,5.8487,15.5,88,100,4.02,NO,1690230718
75,colonia,50.9333,6.95,17.7,85,20,2.06,DE,1690230719
76,whitehorse,60.7161,-135.0538,16.43,72,75,4.12,CA,1690230590
77,haiku-pauwela,20.9219,-156.3051,30.09,66,20,11.83,US,1690230719
78,vila velha,-20.3297,-40.2925,23.97,84,20,3.09,BR,1690230720
79,chibougamau,49.9168,-74.3659,18.79,77,100,4.23,CA,1690230573
80,ogden,41.223,-111.9738,35.84,26,0,4.12,US,1690230612
81,ribeira grande,38.5167,-28.7,23.22,83,40,2.68,PT,1690230720
82,bethel,41.3712,-73.414,29.73,55,20,6.69,US,1690230552
83,hithadhoo,-0.6,73.0833,28.3,78,100,6.84,MV,1690230721
84,hawaiian paradise park,19.5933,-154.9731,28.18,82,100,3.6,US,1690230721
85,ancud,-41.8697,-73.8203,8.42,93,100,9.55,CL,1690230722
86,ust-nera,64.5667,143.2,17.6,65,97,3.17,RU,1690230722
87,gaigeturi,33.4644,126.3183,26.03,83,100,1.54,KR,1690230723
88,palmer,42.1584,-72.3287,30.14,51,40,8.75,US,1690230724
89,albany,42.6001,-73.9662,25.5,87,60,0.89,US,1690230545
90,porto empedocle,37.2934,13.5264,30.62,42,0,2.69,IT,1690230724
91,thompson,55.7435,-97.8558,28.09,32,20,4.63,CA,1690230725
92,igarka,67.4667,86.5833,14.27,78,58,2.6,RU,1690230725
93,margaret river,-33.95,115.0667,16.76,80,34,8.71,AU,1690230726
94,codrington,-38.2667,141.9667,10.09,74,94,2.22,AU,1690230726
95,attock city,33.7731,72.3741,32.91,55,99,1.81,PK,1690230726
96,chonchi,-42.6128,-73.8092,7.84,96,100,4.36,CL,1690230727
97,ilulissat,69.2167,-51.1,9.01,81,75,2.06,GL,1690230729
98,mtwara,-10.2667,40.1833,23.63,94,40,5.14,TZ,1690230729
99,zheleznogorsk,52.331,35.3711,17.05,81,98,4.66,RU,1690230730
100,lerwick,60.1545,-1.1494,12.0,87,81,7.17,GB,1690230730
101,georgetown,5.4112,100.3354,26.96,89,20,1.03,MY,1690230631
102,atafu village,-8.5421,-172.5159,29.0,69,16,8.1,TK,1690230731
103,punta arenas,-53.15,-70.9167,-0.97,77,100,2.38,CL,1690230591
104,sulak,43.2734,47.5146,24.06,78,100,6.72,RU,1690230732
105,stanley,54.868,-1.6985,12.06,81,20,1.03,GB,1690230732
106,iqaluit,63.7506,-68.5145,8.85,76,75,4.12,CA,1690230476
107,yeed,4.55,43.0333,26.41,51,27,9.83,SO,1690230733
108,alesund,62.4723,6.1549,15.5,88,75,6.69,NO,1690230733
109,mount gambier,-37.8333,140.7667,7.65,88,82,1.01,AU,1690230660
110,leticia,-4.2153,-69.9406,30.03,70,40,1.54,CO,1690230734
111,pizarro,4.9533,-77.366,28.7,80,100,4.2,CO,1690230734
112,la concepcion,8.5167,-82.6167,30.66,83,100,1.79,PA,1690230735
113,alofi,-19.0595,-169.9187,22.94,68,75,3.6,NU,1690230735
114,fayroz koh,34.5195,65.2509,18.04,34,83,1.03,AF,1690230736
115,port lincoln,-34.7333,135.8667,12.74,72,88,4.32,AU,1690230736
116,wailua homesteads,22.0669,-159.378,28.44,77,75,7.2,US,1690230736
117,an nimas,19.1455,42.1201,22.05,28,100,0.94,SA,1690230737
118,khash,28.2211,61.2158,26.06,22,100,0.61,IR,1690230737
119,tidjikja,18.5564,-11.4271,35.27,32,22,3.66,MR,1690230738
120,longyearbyen,78.2186,15.6401,10.91,71,75,7.72,SJ,1690230738
121,horta,38.5333,-28.6333,22.8,83,40,2.68,PT,1690230738
122,avarua,-21.2078,-159.775,24.03,83,100,3.09,CK,1690230739
123,bantay,17.5847,120.3892,26.51,83,100,5.13,PH,1690230739
124,rio grande,-32.035,-52.0986,13.06,93,100,7.95,BR,1690230740
125,znamenskoye,57.1281,73.8282,14.7,98,95,2.26,RU,1690230740
126,qaqortoq,60.7167,-46.0333,6.33,90,84,3.19,GL,1690230741
127,phan thiet,10.9333,108.1,24.47,93,96,3.2,VN,1690230741
128,petropavlovsk-kamchatsky,53.0452,158.6483,15.33,77,20,2.0,RU,1690230742
129,ialibu,-6.2821,143.9935,12.85,98,100,0.33,PG,1690230742
130,tutoia,-2.7619,-42.2744,26.87,77,74,4.68,BR,1690230743
131,kabirwala,30.4068,71.8667,26.92,67,100,2.49,PK,1690230743
132,lagoa,39.05,-27.9833,21.79,85,3,5.03,PT,1690230744
133,beloyarskiy,63.7119,66.6722,14.74,96,91,1.45,RU,1690230744
134,sandnessjoen,66.0217,12.6316,14.29,94,75,3.6,NO,1690230745
135,praia da vitoria,38.7333,-27.0667,25.14,78,20,3.98,PT,1690230746
136,olonkinbyen,70.9221,-8.7187,4.96,93,100,6.01,SJ,1690230746
137,dembi dolo,8.5333,34.8,14.04,94,100,1.57,ET,1690230746
138,flin flon,54.7682,-101.865,26.91,34,40,4.12,CA,1690230747
139,margate,51.3813,1.3862,15.94,79,99,1.79,GB,1690230686
140,cheyenne,41.14,-104.8203,33.21,23,0,3.09,US,1690230502
141,dudinka,69.4058,86.1778,13.68,72,58,3.85,RU,1690230738
142,olinda,-8.0089,-34.8553,25.85,78,40,4.12,BR,1690230704
143,torbat-e heydariyeh,35.274,59.2195,26.01,21,0,8.79,IR,1690230749
144,kachug,53.9606,105.8817,13.04,97,15,0.96,RU,1690230749
145,bousso,10.4795,16.7117,26.63,72,60,2.24,TD,1690230750
146,pacasmayo,-7.4006,-79.5714,23.29,72,1,7.57,PE,1690230750
147,kodiak,57.79,-152.4072,12.73,76,100,5.14,US,1690230751
148,gornopravdinsk,60.05,69.9,14.23,95,100,1.07,RU,1690230751
149,vorkuta,67.5,64.0,14.99,79,95,1.08,RU,1690230751
150,bredasdorp,-34.5322,20.0403,7.28,74,0,1.9,ZA,1690230752
151,anadyr,64.75,177.4833,11.28,93,100,6.71,RU,1690230752
152,eyl,7.9803,49.8164,26.03,65,87,12.18,SO,1690230753
153,cabo san lucas,22.8909,-109.9124,34.78,62,20,3.09,MX,1690230384
154,podenzano,44.9564,9.685,23.51,95,19,2.31,IT,1690230753
155,sola,-13.8833,167.55,25.81,86,96,6.17,VU,1690230754
156,afaahiti,-17.75,-149.2833,27.93,81,6,9.11,PF,1690230754
157,fauske,67.2588,15.3918,15.43,95,100,0.38,NO,1690230754
158,port elizabeth,-33.918,25.5701,9.16,81,0,2.57,ZA,1690230754
159,mount isa,-20.7333,139.5,11.87,58,40,5.66,AU,1690230642
160,touros,-5.1989,-35.4608,25.12,78,14,7.36,BR,1690230755
161,mareeba,-17.0,145.4333,13.4,64,0,1.25,AU,1690230755
162,east london,-33.0153,27.9116,12.82,64,0,3.27,ZA,1690230756
163,as sulayyil,20.4607,45.5779,35.14,8,100,3.09,SA,1690230756
164,karratha,-20.7377,116.8463,15.48,46,0,6.79,AU,1690230756
165,cidreira,-30.1811,-50.2056,17.13,96,100,4.57,BR,1690230762
166,pacific grove,36.6177,-121.9166,27.99,82,20,4.92,US,1690230762
167,bismarck,46.8083,-100.7837,36.47,37,0,6.69,US,1690230472
168,lebu,-37.6167,-73.65,10.69,92,100,8.67,CL,1690230763
169,sinabang,2.4803,96.3801,26.37,80,16,0.29,ID,1690230763
170,cambria,35.5641,-121.0808,36.98,51,96,3.82,US,1690230763
171,new norfolk,-42.7826,147.0587,8.72,85,99,1.62,AU,1690230764
172,bubaque,11.2833,-15.8333,27.66,78,100,5.08,GW,1690230764
173,camiri,-20.05,-63.5167,16.88,51,100,0.0,BO,1690230764
174,constantia,44.1833,28.65,23.38,73,0,7.98,RO,1690230765
175,geraldton,-28.7667,114.6,11.23,62,17,6.17,AU,1690230765
176,nar'yan-mar,67.6713,53.087,16.04,75,100,2.6,RU,1690230765
177,nemuro,43.3236,145.575,17.13,94,93,6.61,JP,1690230766
178,howrah,22.5892,88.3103,28.0,89,20,1.54,IN,1690230766
179,lospalos,-8.5186,127.0025,18.13,79,100,2.98,TL,1690230766
180,naze,28.3667,129.4833,27.51,83,100,5.24,JP,1690230767
181,isafjordur,66.0755,-23.124,10.1,94,100,2.51,IS,1690230767
182,ciudad lazaro cardenas,17.9583,-102.2,31.62,58,99,4.07,MX,1690230767
183,palmas,-10.2128,-48.3603,31.93,29,0,2.06,BR,1690230745
184,konarka,19.9,86.1167,26.22,83,24,5.23,IN,1690230768
185,ryotsu-minato,38.0833,138.4333,25.88,78,1,1.8,JP,1690230769
186,el arenal,20.7833,-103.7,27.95,44,92,1.43,MX,1690230769
187,galveston,29.3669,-94.9669,36.69,66,0,4.63,US,1690230544
188,ketchikan,55.3422,-131.6461,20.26,60,0,5.14,US,1690230770
189,cavelossim,15.1726,73.9419,26.99,85,100,7.28,IN,1690230770
190,carutapera,-1.195,-46.02,25.0,91,4,3.03,BR,1690230771
191,severodvinsk,64.5635,39.8302,11.96,93,94,2.76,RU,1690230680
192,rapid valley,44.0625,-103.1463,35.21,34,0,6.69,US,1690230771
193,chom thong,18.4174,98.6743,26.14,96,69,1.44,TH,1690230772
194,prince rupert,54.3161,-130.3201,16.83,86,20,2.57,CA,1690230772
195,cody,44.5263,-109.0565,35.11,22,0,3.6,US,1690230773
196,laojunmiao,39.8333,97.7333,20.81,23,74,1.07,CN,1690230773
197,hamilton,39.1834,-84.5333,32.34,62,100,5.66,US,1690230643
198,altai,46.3722,96.2583,13.29,41,53,0.58,MN,1690230774
199,polyarnyy,69.1989,33.4478,9.3,96,100,4.95,RU,1690230774
200,petropavlovka,50.6114,105.3196,14.15,94,78,0.81,RU,1690230774
201,shakhtersk,48.0625,38.5167,17.51,59,9,2.73,UA,1690230775
202,san andres,12.5847,-81.7006,32.01,66,20,7.72,CO,1690230775
203,fale old settlement,-9.3852,-171.2468,28.8,72,7,7.56,TK,1690230775
204,kodinsk,58.6881,99.1844,15.36,97,97,1.81,RU,1690230776
205,puerto vilelas,-27.5141,-58.9391,16.04,77,0,4.63,AR,1690230776
206,khawr fakkan,25.3313,56.342,31.03,81,100,3.73,AE,1690230776
207,khulm,36.6974,67.6983,32.25,16,6,2.36,AF,1690230777
208,iskateley,67.6803,53.1512,15.92,76,100,2.67,RU,1690230777
209,murun-kuren,49.6342,100.1625,10.86,88,100,1.01,MN,1690230777
210,taki,22.5861,88.9214,27.97,89,47,3.19,IN,1690230778
211,caleta de carquin,-11.0925,-77.6267,21.46,73,11,5.64,PE,1690230778
212,krusevac,43.58,21.3339,26.2,56,26,2.43,RS,1690230778
213,lihue,21.9789,-159.3672,28.77,71,75,7.2,US,1690230506
214,curvelo,-18.7564,-44.4308,21.47,65,95,0.52,BR,1690230779
215,sorong,-0.8833,131.25,24.59,91,96,6.12,ID,1690230780
216,quiberon,47.4841,-3.1196,17.28,83,26,6.26,FR,1690230780
217,arraial do cabo,-22.9661,-42.0278,22.98,78,0,8.75,BR,1690230781
218,tezu,27.9167,96.1667,24.88,87,100,1.44,IN,1690230781
219,kupang,-10.1667,123.5833,22.31,75,34,6.88,ID,1690230782
220,tazovsky,67.4667,78.7,13.81,94,73,2.99,RU,1690230783
221,oranjemund,-28.55,16.4333,12.2,78,100,6.13,NA,1690230784
222,cedral,23.8,-100.7333,25.46,43,84,8.03,MX,1690230785
223,rongelap,11.1635,166.8941,28.59,73,87,8.65,MH,1690230785
224,santa elena de uairen,4.6167,-61.1333,23.78,75,40,3.3,VE,1690230785
225,manay,7.215,126.5397,26.66,81,100,5.18,PH,1690230786
226,kailua-kona,19.6406,-155.9956,29.17,79,20,5.14,US,1690230786
227,howard springs,-12.497,131.047,14.95,52,13,4.08,AU,1690230787
228,udachny,66.4167,112.4,13.03,93,21,1.79,RU,1690230787
229,sittwe,20.15,92.9,28.1,80,74,7.53,MM,1690230633
230,port blair,11.6667,92.75,25.02,94,75,6.85,IN,1690230668
231,pudozh,61.8099,36.5345,12.19,97,100,2.72,RU,1690230788
232,antonio enes,-16.2325,39.9086,21.21,85,0,3.03,MZ,1690230789
233,freetown,8.484,-13.2299,25.84,89,75,4.12,SL,1690230789
234,turaif,31.6725,38.6637,31.14,18,0,7.2,SA,1690230790
235,navarre,30.4016,-86.8636,34.73,59,0,5.14,US,1690230378
236,cobija,-11.0267,-68.7692,35.1,43,20,3.09,BO,1690230791
237,agat village,13.3886,144.6585,28.52,90,0,4.63,GU,1690230791
238,port augusta,-32.5,137.7667,7.24,88,0,2.46,AU,1690230791
239,aykhal,66.0,111.5,13.85,91,95,2.4,RU,1690230792
240,hadibu,12.65,54.0333,24.91,79,67,9.89,YE,1690230792
241,bayanhongor,46.7167,100.1167,10.04,74,90,2.05,MN,1690230793
242,manfalut,27.3104,30.97,34.14,15,5,4.12,EG,1690230793
243,canitas de felipe pescador,23.6,-102.7167,26.46,30,100,4.29,MX,1690230794
244,borogontsy,62.6683,131.1683,20.58,78,30,2.38,RU,1690230794
245,daru,-9.0763,143.2092,23.99,73,100,2.46,PG,1690230795
246,miandrivazo,-19.5167,45.4667,21.44,65,0,0.53,MG,1690230795
247,les sables-d'olonne,46.6667,-1.8333,17.44,82,38,8.51,FR,1690230796
248,muan,34.9897,126.4714,25.94,83,100,4.12,KR,1690230796
249,magadan,59.5667,150.8,14.9,63,13,1.78,RU,1690230796
250,vila franca do campo,37.7167,-25.4333,22.23,81,50,1.65,PT,1690230797
251,mejit,10.2753,170.8646,28.29,78,98,7.86,MH,1690230797
252,tugulym,57.0591,64.6425,15.18,75,54,2.45,RU,1690230798
253,nouadhibou,20.931,-17.0347,23.99,69,54,7.72,MR,1690230798
254,iquique,-20.2208,-70.1431,19.02,78,20,3.16,CL,1690229999
255,kapuskasing,49.4169,-82.4331,23.05,49,75,1.54,CA,1690230799
256,wynyard,-41.0,145.7167,8.08,84,95,2.61,AU,1690230799
257,st. john's,47.5649,-52.7093,25.71,83,75,7.2,CA,1690230600
258,neusiedl am see,47.9357,16.8325,24.72,76,100,7.34,AT,1690230800
259,sheringham,52.9408,1.2093,13.44,76,20,5.89,GB,1690230800
260,phan rang-thap cham,11.5667,108.9833,25.67,90,100,0.91,VN,1690230623
261,katsina-ala,7.1667,9.2833,23.71,89,100,4.01,NG,1690230801
262,nagqu,31.5,92.0,4.57,93,100,1.97,CN,1690230801
263,ust'-ordynskiy,52.805,104.7508,12.32,93,33,1.47,RU,1690230802
264,puerto baquerizo moreno,-0.9,-89.6,27.55,78,75,4.63,EC,1690230802
265,mandera,3.9366,41.867,27.23,54,95,9.86,KE,1690230803
266,saint-joseph,-21.3667,55.6167,19.21,84,25,3.32,RE,1690230803
267,lompoc,34.6391,-120.4579,35.99,69,40,3.6,US,1690230803
268,sarina,-21.4333,149.2167,17.93,1,88,7.07,AU,1690230804
269,upata,8.0086,-62.3989,31.22,78,99,1.98,VE,1690230804
270,north bend,43.4065,-124.2243,27.36,53,0,5.14,US,1690230805
271,duong dong,10.2167,103.9667,29.0,84,40,4.63,VN,1690230806
272,luanco,43.6152,-5.7934,19.45,71,51,5.28,ES,1690230806
273,griffith,41.5284,-87.4237,31.7,55,0,4.12,US,1690230807
274,papao,-17.75,-149.55,28.82,85,6,10.61,PF,1690230807
275,sarrebourg,48.7333,7.05,18.34,58,96,0.98,FR,1690230808
276,isla mujeres,21.2311,-86.731,32.03,74,50,4.67,MX,1690230808
277,nanping,26.645,118.1736,24.36,98,51,1.09,CN,1690230808
278,springbok,-29.6643,17.8865,8.26,32,100,4.5,ZA,1690230809
279,darwin,-12.4611,130.8418,14.99,36,0,3.6,AU,1690230809
280,rikaze,29.25,88.8833,11.61,70,100,1.2,CN,1690230809
281,rockland,41.1668,-74.0496,30.25,55,85,2.57,US,1690230810
282,villa gesell,-37.2639,-56.973,7.81,70,86,3.78,AR,1690230810
283,mount pearl,47.5166,-52.7813,25.81,80,40,6.69,CA,1690230811
284,tura,25.5198,90.2201,23.55,97,100,2.06,IN,1690230811
285,mbabane,-26.3167,31.1333,9.74,90,100,1.83,SZ,1690230812
286,moose jaw,50.4001,-105.5344,34.15,33,75,6.17,CA,1690230812
287,coxen hole,16.3244,-86.5366,30.6,66,0,9.26,HN,1690230813
288,grand-bassam,5.2118,-3.7388,24.98,89,100,2.7,CI,1690230813
289,woods creek,47.8787,-121.8985,20.13,64,100,1.34,US,1690230620
290,laguna,38.421,-121.4238,34.97,32,0,4.12,US,1690230683
291,korla,41.7597,86.1469,27.9,33,78,5.23,CN,1690230814
292,hami,42.8,93.45,27.44,24,0,4.92,CN,1690230814
293,ghanzi,-21.5667,21.7833,17.08,29,11,3.31,BW,1690230815
294,cockburn town,21.4612,-71.1419,30.98,62,40,5.66,TC,1690230643
295,gaalkacyo,6.7697,47.4308,25.34,62,50,11.2,SO,1690230815
296,shwebo,22.5667,95.7,28.19,70,73,4.37,MM,1690230816
297,loreto,22.2667,-101.9667,24.15,42,99,9.47,MX,1690230816
298,pont rouge,48.8833,-72.0825,29.16,61,98,1.1,CA,1690230816
299,pachelma,53.2443,43.3521,14.48,77,18,2.83,RU,1690230817
300,sitka,57.0531,-135.33,16.94,77,20,1.54,US,1690230745
301,stettler,52.3168,-112.7186,27.86,51,0,3.09,CA,1690230817
302,rio gallegos,-51.6226,-69.2181,0.03,80,0,5.66,AR,1690230692
303,simaria,24.8,81.15,30.91,60,100,2.73,IN,1690230818
304,nyurba,63.2842,118.3319,18.54,88,51,3.45,RU,1690230818
305,belmonte,-15.8631,-38.8828,22.39,78,0,4.75,BR,1690230819
306,fort st. john,56.2499,-120.8529,16.94,72,100,1.03,CA,1690230819
307,massawa,15.6097,39.45,36.89,38,91,3.76,ER,1690230819
308,luderitz,-26.6481,15.1594,14.04,62,98,3.34,NA,1690230820
309,richards bay,-28.783,32.0377,16.07,75,100,2.97,ZA,1690230820
310,aweil,8.7682,27.4002,22.13,96,100,2.3,SS,1690230820
311,keflavik,64.0049,-22.5624,11.95,82,100,3.09,IS,1690230821
312,ampanihy,-24.7,44.75,15.25,88,17,1.72,MG,1690230821
313,kill devil hills,36.0307,-75.676,28.0,76,75,4.63,US,1690230699
314,dicle,38.3751,40.0722,24.38,42,0,5.34,TR,1690230821
315,ankazoabo,-22.2833,44.5167,16.32,59,8,3.23,MG,1690230822
316,cabedelo,-6.9811,-34.8339,25.37,82,1,6.75,BR,1690230822
317,tralee,52.2704,-9.7026,12.44,86,98,2.58,IE,1690230822
318,trairi,-3.2778,-39.2689,25.99,79,8,5.92,BR,1690230738
319,ha'il,27.5219,41.6907,34.01,13,0,2.06,SA,1690230565
320,coronel oviedo,-25.4167,-56.45,26.66,36,44,1.58,PY,1690230823
321,lajere,11.9797,11.4443,30.09,46,3,1.98,NG,1690230824
322,padang,-0.9492,100.3543,24.82,81,82,1.37,ID,1690230824
323,glendive,47.1053,-104.7125,38.79,13,0,5.14,US,1690230602
324,inyonga,-6.7167,32.0667,19.8,44,3,2.11,TZ,1690230825
325,fort bragg,35.139,-79.006,33.23,66,20,1.54,US,1690230825
326,bodaybo,57.8506,114.1933,16.85,84,32,1.05,RU,1690230746
327,brumunddal,60.881,10.9395,12.65,99,100,2.54,NO,1690230826
328,conduaga,8.862,117.4893,26.23,88,100,4.98,PH,1690230826
329,banda aceh,5.5577,95.3222,26.83,71,78,5.91,ID,1690230826
330,isangel,-19.55,169.2667,19.06,94,100,0.0,VU,1690230827
331,basco,20.4487,121.9702,28.87,82,100,14.04,PH,1690230827
332,zhangye,38.9342,100.4517,24.32,32,23,2.22,CN,1690230828
333,uvira,-3.4067,29.1458,22.07,68,42,0.51,CD,1690230828
334,san antonio de pale,-1.4014,5.6325,22.8,84,100,4.52,GQ,1690230828
335,kapa'a,22.0752,-159.319,29.18,77,75,7.2,US,1690230610
336,arkhangel'sk,64.5401,40.5433,10.91,98,45,2.12,RU,1690230829
337,klaksvik,62.2266,-6.589,8.51,87,100,5.89,FO,1690230829
338,kununurra,-15.7667,128.7333,15.99,39,6,5.14,AU,1690230765
339,eenhana,-17.4667,16.3333,17.79,22,1,3.17,NA,1690230830
340,kingston,17.997,-76.7936,34.02,66,20,9.77,JM,1690230830
341,belyy yar,53.6039,91.3903,15.94,100,0,2.0,RU,1690230830
342,qamdo,31.1667,97.2333,5.42,92,100,2.22,CN,1690230831
343,luau,-10.7073,22.2247,19.73,36,2,1.84,AO,1690230831
344,boca do acre,-8.7522,-67.3978,35.08,28,1,0.63,BR,1690230832
345,paita,-5.0892,-81.1144,23.75,73,96,7.88,PE,1690230832
346,kavieng,-2.5744,150.7967,26.78,83,100,5.33,PG,1690230832
347,san clemente del tuyu,-36.3569,-56.7235,8.32,69,72,4.42,AR,1690230833
348,burang,30.25,81.1667,11.46,78,97,2.13,CN,1690230833
349,whittlesea,-32.1759,26.8244,4.47,56,0,0.58,ZA,1690230833
350,ust-tsilma,65.441,52.1498,12.9,95,45,1.76,RU,1690230834
351,necochea,-38.5473,-58.7368,6.13,70,76,4.4,AR,1690230834
352,utrik,11.2278,169.8474,28.26,78,91,7.0,MH,1690230834
353,ad dilinjat,30.8279,30.5363,26.23,78,0,4.71,EG,1690230834
354,kouango,4.9934,19.9619,24.75,86,99,1.66,CF,1690230835
355,rimouski,48.4488,-68.524,28.1,56,3,4.67,CA,1690230555
356,martapura,-3.4167,114.85,23.05,100,76,1.03,ID,1690230835
357,kirakira,-10.4544,161.9205,26.34,85,9,1.3,SB,1690230836
358,tolanaro,-25.0319,46.9987,19.04,94,20,2.06,MG,1690230836
359,puma,-5.0,34.7333,18.55,53,43,4.67,TZ,1690230836
360,brak,27.5496,14.2714,35.68,14,0,6.88,LY,1690230837
361,tsiombe,-25.3,45.4833,16.26,90,72,2.02,MG,1690230837
362,ghormach,35.7306,63.7826,29.0,19,0,0.89,AF,1690230838
363,el amria,35.5244,-1.0158,29.02,38,61,6.88,DZ,1690230838
364,sapri,40.0751,15.6296,29.42,40,0,2.33,IT,1690230838
365,lampazos de naranjo,27.0167,-100.5167,37.76,28,19,7.49,MX,1690230839
366,baikonur,45.6167,63.3167,31.9,25,5,4.27,KZ,1690230839
367,vangaindrano,-23.35,47.6,18.88,93,6,1.79,MG,1690230839
368,manokwari,-0.8667,134.0833,25.57,79,77,1.66,ID,1690230840
369,menongue,-14.6585,17.691,15.34,29,99,1.6,AO,1690230557
370,ondjiva,-17.0667,15.7333,16.84,26,8,1.1,AO,1690230840
371,vorgashor,67.5833,63.95,15.06,77,93,1.35,RU,1690230841
372,nago,26.5881,127.9761,29.47,83,56,6.02,JP,1690230841
373,ouadda,8.0777,22.4007,20.85,95,97,0.68,CF,1690230841
374,belozersk,60.0326,37.7957,12.21,92,81,3.0,RU,1690230842
375,plesetsk,62.708,40.2916,10.12,97,29,2.09,RU,1690230842
376,enewetak,11.3474,162.3373,28.41,78,67,7.75,MH,1690230843
377,mar del plata,-38.0023,-57.5575,7.75,70,40,6.71,AR,1690230837
378,tazacorte,28.629,-17.9293,23.54,85,20,7.72,ES,1690230844
379,lahad datu,5.0268,118.327,24.66,92,100,1.71,MY,1690230844
380,ihosy,-22.4,46.1167,16.34,50,3,2.61,MG,1690230845
381,potosi,-19.5836,-65.7531,16.48,23,0,5.14,BO,1690230845
382,tsiroanomandidy,-18.7667,46.0333,19.58,53,77,0.62,MG,1690230845
383,prado,-17.3411,-39.2208,21.06,88,3,3.13,BR,1690230846
384,lorengau,-2.0226,147.2712,25.18,90,100,2.8,PG,1690230846
385,cozumel,20.5083,-86.9458,33.04,78,40,7.2,MX,1690230847
386,qui nhon,13.7667,109.2333,25.54,87,100,1.87,VN,1690230847
387,ola,59.5833,151.2833,14.77,65,3,0.82,RU,1690230848
388,urangan,-25.3,152.9,18.33,76,35,9.23,AU,1690230848
389,severoural'sk,60.1533,59.952,13.57,74,75,0.83,RU,1690230848
390,paya,18.25,-70.3,31.92,61,24,6.77,DO,1690230849
391,qobustan,40.0824,49.412,28.33,50,90,11.84,AZ,1690230849
392,galliano,29.4422,-90.2992,34.0,52,40,3.09,US,1690230849
393,coahuayana de hidalgo,18.7,-103.6583,30.85,64,100,2.37,MX,1690230850
394,kidal,18.4411,1.4078,36.89,25,76,1.04,ML,1690230850
395,bamboo flat,11.7,92.7167,25.05,94,75,6.8,IN,1690230852
396,nuku'alofa,-21.1333,-175.2,21.19,73,20,2.06,TO,1690230852
397,horsham,51.064,-0.3272,15.87,79,0,2.06,GB,1690230853
398,usogorsk,63.4106,48.6872,13.68,96,100,1.62,RU,1690230853
399,vilyuchinsk,52.9306,158.4028,16.15,80,19,4.5,RU,1690230853
400,timbuktu,16.7735,-3.0074,34.3,43,62,3.65,ML,1690230854
401,mek'ele,13.4967,39.4753,18.5,76,73,1.95,ET,1690230854
402,ribeira do pombal,-10.8344,-38.5358,23.65,62,9,5.42,BR,1690230855
403,banki,20.3833,85.5333,26.06,91,69,2.59,IN,1690230855
404,alajarvi,63.0,23.8167,10.49,98,100,1.74,FI,1690230856
405,coquimbo,-29.9533,-71.3436,16.85,72,20,6.17,CL,1690230800
406,lubango,-14.9172,13.4925,15.83,34,62,1.39,AO,1690230856
407,ngudu,-2.9667,33.3333,23.09,42,39,0.28,TZ,1690230857
408,coronel dorrego,-38.7187,-61.2873,8.0,57,88,3.87,AR,1690230857
409,escarcega,18.6089,-90.7454,38.93,23,8,3.15,MX,1690230589
410,abeche,13.8292,20.8324,30.86,48,80,1.35,TD,1690230858
411,gadzhiyevo,69.2551,33.3362,9.14,96,100,5.32,RU,1690230858
412,newman,37.3138,-121.0208,34.19,8,71,0.65,US,1690230856
413,sao jose da coroa grande,-8.8978,-35.1478,23.51,83,8,3.91,BR,1690230859
414,as safirah,36.077,37.3725,29.07,36,0,5.11,SY,1690230859
415,taunsa,30.7048,70.6505,32.38,58,100,2.14,PK,1690230859
416,cromwell,41.5951,-72.6454,31.08,51,40,6.17,US,1690230641
417,south hedland,-20.4089,118.5983,12.96,38,0,4.12,AU,1690230860
418,broome,42.2506,-75.833,27.21,73,20,4.02,US,1690230860
419,manjeshvar,12.7,74.8833,24.66,86,100,2.14,IN,1690230861
420,novofedorivka,46.1713,32.3178,22.31,72,0,3.02,UA,1690230861
421,ujae,8.9322,165.7642,28.6,79,100,8.46,MH,1690230862
422,zhosaly,45.4878,64.0781,32.45,23,6,4.13,KZ,1690230862
423,al kharj,24.155,47.3346,35.32,9,100,4.02,SA,1690230862
424,xilin hot,43.9667,116.0333,16.79,58,2,1.52,CN,1690230863
425,ebon,4.582,168.6964,28.52,78,72,6.07,MH,1690230863
426,chos malal,-37.3781,-70.2709,8.11,52,7,2.0,AR,1690230863
427,sao paulo de olivenca,-3.3783,-68.8725,28.83,71,100,0.89,BR,1690230864
428,santana,-0.0583,-51.1817,32.1,62,40,2.06,BR,1690230864
429,bartica,6.4,-58.6167,27.18,92,92,1.59,GY,1690230865
430,zakamensk,50.3741,103.2863,11.04,96,39,0.6,RU,1690230865
431,jayapura,-2.5333,140.7,24.66,93,70,1.92,ID,1690230866
432,rostovka,55.3842,71.8891,13.76,93,11,3.64,RU,1690230866
433,chinchilla,-26.75,150.6333,8.16,82,0,5.15,AU,1690230866
434,argo,37.6333,22.7333,28.77,52,0,0.52,GR,1690230867
435,zlotow,53.3635,17.0408,16.77,92,100,2.82,PL,1690230867
436,norwich,52.6278,1.2983,13.85,84,0,1.54,GB,1690230868
437,kokopo,-4.352,152.2633,25.6,83,97,6.88,PG,1690230868
438,kristiansund,63.1115,7.732,14.36,77,40,5.66,NO,1690230868
439,graneros,-34.0667,-70.7333,17.1,45,0,1.03,CL,1690230869
440,tongchuanshi,35.0806,109.0897,23.42,64,1,2.16,CN,1690230869
441,hobyo,5.3505,48.5268,25.26,76,69,12.92,SO,1690230870
442,castillos,-34.1667,-53.8333,8.0,94,100,2.15,UY,1690230870
443,san antonio,29.4241,-98.4936,39.96,31,40,3.6,US,1690230775
444,nikolayevsk-on-amure,53.1406,140.73,20.35,70,92,1.53,RU,1690230871
445,bengkulu,-3.8004,102.2655,23.25,85,35,2.28,ID,1690230793
446,guanajuato,21.0186,-101.2591,27.39,49,96,10.13,MX,1690230872
447,langepas,61.2544,75.2124,17.89,78,100,2.23,RU,1690230872
448,gebeit,21.0667,36.3167,32.48,13,36,1.31,SD,1690230873
449,kencong,-8.2833,113.3667,21.58,91,76,1.06,ID,1690230874
450,port douglas,-16.4833,145.4667,15.72,55,0,3.49,AU,1690230735
451,road town,18.4167,-64.6167,33.05,66,40,4.12,VG,1690230865
452,i-n-salah,27.1935,2.4607,39.22,6,0,8.48,DZ,1690230875
453,isiro,2.7739,27.616,19.44,95,31,0.51,CD,1690230875
454,acheng,45.5454,126.977,18.42,97,21,2.31,CN,1690230875
455,box elder,41.5005,-112.8764,29.4,37,100,3.1,US,1690230876
456,prince george,53.9166,-122.753,19.03,75,100,1.54,CA,1690230520
457,peniche,39.3558,-9.3811,20.16,85,7,6.09,PT,1690230876
458,tari,12.4086,4.4914,30.11,57,42,2.11,NG,1690230876
459,severo-yeniseyskiy,60.3725,93.0408,12.92,93,15,0.87,RU,1690230877
460,elmina,5.0898,-1.348,24.56,91,100,3.48,GH,1690230877
461,rethel,49.5,4.3333,16.93,91,100,1.5,FR,1690230877
462,sechura,-5.5569,-80.8222,26.87,58,84,7.2,PE,1690230878
463,kaka,37.3482,59.6143,31.75,19,0,1.86,TM,1690230878
464,tuy hoa,13.0833,109.3,24.96,91,99,2.65,VN,1690230878
465,palmas de monte alto,-14.2672,-43.1619,24.32,46,100,4.83,BR,1690230879
466,greystones,53.1408,-6.0631,15.48,89,100,2.07,IE,1690230879
467,tosontsengel,48.7567,98.2839,8.22,82,36,1.43,MN,1690230879
468,jiamusi,46.8333,130.35,20.37,87,54,4.72,CN,1690230880
469,gulf shores,30.246,-87.7008,33.54,56,0,4.63,US,1690230880
470,sihanoukville,10.6093,103.5296,24.97,94,75,1.03,KH,1690230880
471,khovd,48.0056,91.6419,16.2,49,7,0.73,MN,1690230881
472,kerema,-7.9631,145.7785,22.91,81,93,2.44,PG,1690230881
473,dossor,47.5272,52.9811,29.6,42,100,4.54,KZ,1690230881
474,akureyri,65.6835,-18.0878,10.96,93,100,3.6,IS,1690230882
475,albertina,-22.2008,-46.6158,19.54,46,41,0.94,BR,1690230882
476,ulladulla,-35.35,150.4667,7.78,76,1,1.81,AU,1690230882
477,hengchun,22.0042,120.7439,28.41,78,86,7.36,TW,1690230882
478,vodice,43.7608,15.7828,30.98,48,15,7.74,HR,1690230883
479,vavuniya,8.7514,80.4971,25.65,80,100,3.7,LK,1690230883
480,harindanga,22.0383,88.3214,27.78,86,30,3.87,IN,1690230883
481,peace river,56.2501,-117.286,20.17,82,100,4.63,CA,1690230884
482,buala,-8.145,159.5921,26.72,84,56,2.56,SB,1690230884
483,zamora,-4.0692,-78.9567,29.38,88,100,1.34,EC,1690230385
484,maloye ganyushkino,46.6,49.2667,26.85,49,96,3.44,KZ,1690230885
485,preobrazheniye,42.9019,133.9064,19.94,97,98,2.73,RU,1690230885
486,atamanovka,51.93,113.63,15.24,84,100,0.08,RU,1690230885
487,anaconda,46.1285,-112.9423,29.55,26,100,5.35,US,1690230886
488,yanam,16.7333,82.2167,25.15,94,100,4.0,IN,1690230886
489,la ronge,55.1001,-105.2842,27.12,36,75,2.57,CA,1690230886
490,mil'kovo,55.6078,37.7956,15.23,95,100,1.44,RU,1690230887
491,waingapu,-9.6567,120.2641,21.86,86,45,5.01,ID,1690230887
492,santa barbara,34.7333,-120.0343,32.22,34,0,2.06,US,1690230887
493,uturoa,-16.7333,-151.4333,26.73,81,18,6.54,PF,1690230888
494,darende,38.5458,37.5058,18.78,70,0,4.76,TR,1690230888
495,quibdo,5.6947,-76.6611,31.19,74,75,3.6,CO,1690230894
496,muzambinho,-21.3758,-46.5256,19.67,50,97,1.68,BR,1690230722
497,mirnyy,62.5353,113.9611,19.02,68,12,3.13,RU,1690230894
498,vittel,48.2009,5.9484,19.84,60,0,1.54,FR,1690230895
499,bulungu,-4.55,18.6,26.0,49,22,0.57,CD,1690230895
500,anse a galets,18.8317,-72.8642,30.31,68,96,4.21,HT,1690230895
501,acarau,-2.8856,-40.12,26.26,77,13,7.14,BR,1690230896
502,shimoda,34.6667,138.95,26.17,85,8,3.22,JP,1690230896
503,callao,-12.0667,-77.15,24.16,57,20,5.66,PE,1690230897
504,wuwei,37.9281,102.6414,22.76,30,98,2.34,CN,1690230897
505,lobujya,27.95,86.8167,3.67,93,100,0.96,NP,1690230897
506,burela de cabo,43.65,-7.4,18.43,80,56,4.14,ES,1690230898
507,la'ie,21.6477,-157.9253,28.98,71,47,6.91,US,1690230898
508,fortaleza,-3.7227,-38.5247,28.07,69,0,7.2,BR,1690230898
509,lodwar,3.1191,35.5973,29.87,42,18,3.83,KE,1690230899
510,trinidad,-14.8333,-64.9,32.99,40,20,3.6,BO,1690230812
511,peterhead,57.5058,-1.7981,12.22,78,26,6.88,GB,1690230748
512,malaut,30.2167,74.4833,32.75,56,100,3.57,IN,1690230900
513,tual,-5.6667,132.75,25.19,76,70,11.04,ID,1690230900
514,kitob,39.0843,66.8332,29.02,22,0,3.87,UZ,1690230900
515,agadez,19.75,10.25,33.91,11,2,3.63,NE,1690230900
516,las palmas,28.4204,-14.0131,22.44,64,20,7.72,ES,1690230901
517,crane,31.3974,-102.3501,38.49,15,0,6.23,US,1690230901
518,parras de la fuente,25.4167,-102.1833,30.02,29,96,8.12,MX,1690230902
519,pointe-noire,-4.7761,11.8635,21.38,88,7,2.76,CG,1690230902
520,dunedin,-45.8742,170.5036,6.56,97,26,0.45,NZ,1690230631
521,la rinconada,37.4873,-5.9826,28.36,49,0,6.69,ES,1690230903
522,amga,60.8953,131.9608,18.92,81,99,1.21,RU,1690230903
523,pavlodar,52.3,76.95,18.89,52,0,2.0,KZ,1690230904
524,eastbourne,50.7687,0.2845,15.62,90,95,3.68,GB,1690230814
525,bel ombre,-4.6167,55.4167,25.91,83,40,8.23,SC,1690230905
526,pathein,16.7833,94.7333,25.6,91,93,2.33,MM,1690230905
527,lazaro cardenas,17.9583,-102.2,31.62,58,99,4.07,MX,1690230905
528,lahat,-3.8,103.5333,20.83,91,25,1.09,ID,1690230906
529,robore,-18.3333,-59.75,34.05,43,0,7.72,BO,1690230906
530,urucara,-2.5364,-57.76,33.65,40,68,1.13,BR,1690230907
531,conceicao da barra,-18.5933,-39.7322,21.0,87,0,2.59,BR,1690230907
532,rosetta,31.4044,30.4164,27.5,80,0,7.12,EG,1690230908
533,yemva,62.59,50.8594,13.49,93,100,2.01,RU,1690230908
534,el granada,37.5027,-122.4694,31.71,67,40,8.23,US,1690230909
535,licheng,23.2955,113.8284,26.67,88,96,0.75,CN,1690230909
536,sendafa,9.15,39.0333,13.64,81,93,0.77,ET,1690230910
537,taro,-8.3862,115.28,22.0,93,99,0.41,ID,1690230910
538,berlin,52.5244,13.4105,19.43,92,0,3.6,DE,1690230910
539,parthenay,46.6667,-0.4167,17.75,93,100,4.98,FR,1690230911
540,turi,40.9173,17.0212,31.15,70,0,5.14,IT,1690230911
541,haugesund,59.4138,5.268,15.23,88,40,6.69,NO,1690230912
542,krasnystaw,50.9846,23.1742,20.11,96,100,2.97,PL,1690230912
543,mindelo,16.8901,-24.9804,26.75,61,40,9.26,CV,1690230913
544,cape canaveral,28.4058,-80.6048,34.55,70,0,6.17,US,1690230913
545,burgos,42.3394,-3.7079,15.23,77,20,6.17,ES,1690230914
546,corning,42.1428,-77.0547,28.95,69,20,2.57,US,1690230914
547,vegreville,53.5001,-112.0518,27.17,61,3,4.12,CA,1690230915
548,san juan de uraba,8.7592,-76.5297,29.79,78,98,3.96,CO,1690230915
549,shakawe,-18.3667,21.85,15.99,29,37,1.96,BW,1690230915
550,anloga,5.7947,0.8973,25.3,89,100,6.04,GH,1690230916
551,mahibadhoo,3.7833,72.9667,28.43,77,63,3.81,MV,1690230916
552,chatellerault,46.8,0.5333,19.4,23,100,6.21,FR,1690230917
553,tchintabaraden,15.8969,5.7985,24.48,74,100,5.99,NE,1690230917
554,djambala,-2.5447,14.7533,22.77,65,40,0.56,CG,1690230918
555,ma'rib,15.4591,45.3253,31.56,32,100,4.93,YE,1690230918
556,kodinar,20.7903,70.7031,26.89,88,94,8.04,IN,1690230919
557,ta`u,-14.2336,-169.5144,25.84,73,95,5.48,AS,1690230919
558,poronaysk,49.2167,143.1167,17.42,94,86,1.0,RU,1690230920
559,puerto aysen,-45.4,-72.7,3.02,81,100,0.0,CL,1690230920
560,nyagan,62.1406,65.3936,14.68,89,100,1.66,RU,1690230921
561,quatre cocos,-20.2078,57.7625,22.06,83,23,2.45,MU,1690230921
562,guaruja,-23.9931,-46.2564,23.92,100,0,1.54,BR,1690230715
563,acapulco de juarez,16.8634,-99.8901,32.9,62,75,2.06,MX,1690230801
564,neryungri,56.6709,124.6491,16.97,79,100,0.69,RU,1690230922
565,bridgewater,44.3835,-64.5155,29.82,55,79,8.75,CA,1690230701
566,sao joao da barra,-21.6403,-41.0511,24.05,84,0,5.1,BR,1690230923
567,sanya,18.2431,109.505,26.09,94,20,1.0,CN,1690230924
568,glennville,31.9366,-81.9285,33.39,40,43,3.05,US,1690230924
569,waiuku,-37.25,174.75,12.59,94,21,2.79,NZ,1690230925
570,semnan,35.5729,53.3971,30.29,14,84,3.23,IR,1690230925
571,port alfred,-33.5906,26.891,12.02,69,0,4.15,ZA,1690230926
572,bria,6.5423,21.9863,21.2,94,36,1.13,CF,1690230926
573,beira,-19.8436,34.8389,21.05,94,0,2.42,MZ,1690230653
574,san luis,-33.295,-66.3356,14.85,30,0,0.4,AR,1690230927
575,labasa,-16.4167,179.3833,25.25,74,43,3.05,FJ,1690230927
576,kwang binh,17.4833,106.6,25.83,85,41,1.45,VN,1690230927
577,dedovichi,57.5517,29.9502,10.57,93,40,2.32,RU,1690230928
